{
   "type": "FeatureCollection",
   "features": [
  {
    "type": "Feature",
    "geometry": {
       "type": "Point",
       "coordinates":  [ -122.286092,47.132742 ]
    },
    "properties": {
    "job_name":"107thDevLLC.BraunsAddition",
    "site_address":"13618 107th Avenue Court East, Pierce County, WA",
    "doc_type":"GC",
    "exp":"None",
    "year":2018,
    "FIELD8":""
    }
  },
  {
    "type": "Feature",
    "geometry": {
       "type": "Point",
       "coordinates":  [ -122.740736,47.310407 ]
    },
    "properties": {
    "job_name":"151st HOA",
    "site_address":"5715 151st Avenue KPN , Pierce County, WA",
    "doc_type":"RG",
    "exp":"B",
    "year":2017,
    "FIELD8":""
    }
  },
  {
    "type": "Feature",
    "geometry": {
       "type": "Point",
       "coordinates":  [ -122.45022,47.243092 ]
    },
    "properties": {
    "job_name":"1918MLKLLC.MLKJrWay",
    "site_address":"1918 Martin Luther King Junior Way Tacoma, Washington",
    "doc_type":"SR",
    "exp":"TP",
    "year":2018,
    "FIELD8":""
    }
  },
  {
    "type": "Feature",
    "geometry": {
       "type": "Point",
       "coordinates":  [ -122.502451,47.294447 ]
    },
    "properties": {
    "job_name":"253Homes.NFerdinandSt.RG.doc",
    "site_address":"4903 North Ferdinand Street Tacoma, WA",
    "doc_type":"RG/F",
    "exp":"None",
    "year":2017,
    "FIELD8":""
    }
  },
  {
    "type": "Feature",
    "geometry": {
       "type": "Point",
       "coordinates":  [ -122.457994,47.165545 ]
    },
    "properties": {
    "job_name":"253HomesLLC.AlaskaStS",
    "site_address":"10109 & 10111 Alaska Street South, Pierce County, WA",
    "doc_type":"SR",
    "exp":"TP",
    "year":2018,
    "FIELD8":""
    }
  },
  {
    "type": "Feature",
    "geometry": {
       "type": "Point",
       "coordinates":  [ -122.477489,47.255035 ]
    },
    "properties": {
    "job_name":"6th&AlderPartners.6th&Alder",
    "site_address":"3118 – 6th Avenue Tacoma, Washington 98403",
    "doc_type":"DFR/L",
    "exp":"None",
    "year":2018,
    "FIELD8":""
    }
  },
  {
    "type": "Feature",
    "geometry": {
       "type": "Point",
       "coordinates":  [ -122.277992,47.531866 ]
    },
    "properties": {
    "job_name":"785sixRentonLLC.RentonAveS",
    "site_address":"7856 Renton Avenue South Seattle, Washington ",
    "doc_type":"RG",
    "exp":"TP",
    "year":2019,
    "FIELD8":""
    }
  },
  {
    "type": "Feature",
    "geometry": {
       "type": "Point",
       "coordinates":  [ -122.268092,47.52859 ]
    },
    "properties": {
    "job_name":"834eightWabashLLC.WabashAveS",
    "site_address":"8348 Wabash Avenue South Seattle, Washington ",
    "doc_type":"RG",
    "exp":"TP",
    "year":2019,
    "FIELD8":""
    }
  },
  {
    "type": "Feature",
    "geometry": {
       "type": "Point",
       "coordinates":  [ -122.417492,47.179806 ]
    },
    "properties": {
    "job_name":"98CroftLLC.85thStE",
    "site_address":"916 – 85th Street East Pierce County, Washington",
    "doc_type":"SR",
    "exp":"TP",
    "year":2019,
    "FIELD8":""
    }
  },
  {
    "type": "Feature",
    "geometry": {
       "type": "Point",
       "coordinates":  [ -122.699637,47.405783 ]
    },
    "properties": {
    "job_name":"A&ZConstruction.57thStKpN",
    "site_address":"15804 Windy Cedar Ln SW, Port Orchard, WA",
    "doc_type":"LHGL",
    "exp":"None",
    "year":2017,
    "FIELD8":""
    }
  },
  {
    "type": "Feature",
    "geometry": {
       "type": "Point",
       "coordinates":  [ -122.265584,47.335188 ]
    },
    "properties": {
    "job_name":"A1Asphalt.55thAveS",
    "site_address":"29655 55th Ave S Auburn, WA",
    "doc_type":"DFR",
    "exp":"None",
    "year":2019,
    "FIELD8":""
    }
  },
  {
    "type": "Feature",
    "geometry": {
       "type": "Point",
       "coordinates":  [ -122.349743,47.50998 ]
    },
    "properties": {
    "job_name":"A1Asphalt.BlakelySP",
    "site_address":"SW 104th Street and 12th Avenue SW, Seattle, WA",
    "doc_type":"L",
    "exp":"None",
    "year":2017,
    "FIELD8":""
    }
  },
  {
    "type": "Feature",
    "geometry": {
       "type": "Point",
       "coordinates":  [ -122.288015,47.136077 ]
    },
    "properties": {
    "job_name":"ABDProperties.105thAvCt",
    "site_address":"13211 – 105th Av Ct E Pierce County, WA ",
    "doc_type":"SR",
    "exp":"PH",
    "year":2016,
    "FIELD8":""
    }
  },
  {
    "type": "Feature",
    "geometry": {
       "type": "Point",
       "coordinates":  [ -122.405687,47.099278 ]
    },
    "properties": {
    "job_name":"ABN.174thStE",
    "site_address":"1805 174th Street E, Pierce County, WA",
    "doc_type":"L",
    "exp":"None",
    "year":2018,
    "FIELD8":""
    }
  },
  {
    "type": "Feature",
    "geometry": {
       "type": "Point",
       "coordinates":  [ -122.470081,47.209415 ]
    },
    "properties": {
    "job_name":"ABN.Contacting.SProspectSt",
    "site_address":"5208 S Prospect St, Tacoma, WA",
    "doc_type":"DFR",
    "exp":"None",
    "year":2018,
    "FIELD8":""
    }
  },
  {
    "type": "Feature",
    "geometry": {
       "type": "Point",
       "coordinates":  [ -122.660907,47.410349 ]
    },
    "properties": {
    "job_name":"Abrams.SWLakeSt",
    "site_address":"xxx Southwest Lake Street Kitsap County, Washington",
    "doc_type":"GHA",
    "exp":"HA",
    "year":2019,
    "FIELD8":""
    }
  },
  {
    "type": "Feature",
    "geometry": {
       "type": "Point",
       "coordinates":  [ -122.271657,47.172636 ]
    },
    "properties": {
    "job_name":"Absher.CypressManor",
    "site_address":"1802 20th Ave Ct SE  Puyallup, Washington",
    "doc_type":"Fl",
    "exp":"None",
    "year":2016,
    "FIELD8":""
    }
  },
  {
    "type": "Feature",
    "geometry": {
       "type": "Point",
       "coordinates":  [ -122.363731,46.870394 ]
    },
    "properties": {
    "job_name":"Abston.429thStE",
    "site_address":"xxx – 429th Street East Pierce County, Washington",
    "doc_type":"SR",
    "exp":"TP",
    "year":2019,
    "FIELD8":""
    }
  },
  {
    "type": "Feature",
    "geometry": {
       "type": "Point",
       "coordinates":  [ -122.028995,46.760466 ]
    },
    "properties": {
    "job_name":"Adams.306thAveE",
    "site_address":"54917 – 306th Avenue East Pierce County, Washington",
    "doc_type":"LHGL",
    "exp":"None",
    "year":2019,
    "FIELD8":""
    }
  },
  {
    "type": "Feature",
    "geometry": {
       "type": "Point",
       "coordinates":  [ -122.593751,47.260691 ]
    },
    "properties": {
    "job_name":"Adams.4thStNW",
    "site_address":"4012-4th Street NW, Pierce County, Washington",
    "doc_type":"M",
    "exp":"None",
    "year":2017,
    "FIELD8":""
    }
  },
  {
    "type": "Feature",
    "geometry": {
       "type": "Point",
       "coordinates":  [ -122.261343,47.066984 ]
    },
    "properties": {
    "job_name":"Adams127thAveE",
    "site_address":"20821 – 127th Avenue East Pierce County, Washington",
    "doc_type":"SR",
    "exp":"HA",
    "year":2017,
    "FIELD8":""
    }
  },
  {
    "type": "Feature",
    "geometry": {
       "type": "Point",
       "coordinates":  [ -122.292927,47.228173 ]
    },
    "properties": {
    "job_name":"AdvancedElectric.32ndStE",
    "site_address":"10218 32nd Street East, Edgewood, WA",
    "doc_type":"SR",
    "exp":"TP",
    "year":2018,
    "FIELD8":""
    }
  },
  {
    "type": "Feature",
    "geometry": {
       "type": "Point",
       "coordinates":  [ -122.262639,47.218086 ]
    },
    "properties": {
    "job_name":"Afichuk.CaldwellRd",
    "site_address":"4222 Caldwell Road East, Edgewood, WA",
    "doc_type":"SR",
    "exp":"TP",
    "year":2018,
    "FIELD8":""
    }
  },
  {
    "type": "Feature",
    "geometry": {
       "type": "Point",
       "coordinates":  [ -122.287904,47.302403 ]
    },
    "properties": {
    "job_name":"Afichuk.S334thdSt",
    "site_address":"3605 South 334th Street Federal Way, Washington",
    "doc_type":"IL",
    "exp":"TP",
    "year":2013,
    "FIELD8":""
    }
  },
  {
    "type": "Feature",
    "geometry": {
       "type": "Point",
       "coordinates":  [ -122.327279,47.332718 ]
    },
    "properties": {
    "job_name":"AgodoaL.MarineHillsWay",
    "site_address":"514 S Marine Hills Way Federal Way, WA  98023",
    "doc_type":"GR",
    "exp":"None",
    "year":2015,
    "FIELD8":""
    }
  },
  {
    "type": "Feature",
    "geometry": {
       "type": "Point",
       "coordinates":  [ -122.675958,47.168076 ]
    },
    "properties": {
    "job_name":"Alessio.104thAve.LHGL",
    "site_address":"9803 104th Ave, Pierce County, WA",
    "doc_type":"LHGL",
    "exp":"None",
    "year":2015,
    "FIELD8":""
    }
  },
  {
    "type": "Feature",
    "geometry": {
       "type": "Point",
       "coordinates":  [ -122.426389,47.317772 ]
    },
    "properties": {
    "job_name":"Allred.SoundviewDr.NE",
    "site_address":"6720 Soundview Drive NE Tacoma, Washington",
    "doc_type":"F",
    "exp":"None",
    "year":2014,
    "FIELD8":""
    }
  },
  {
    "type": "Feature",
    "geometry": {
       "type": "Point",
       "coordinates":  [ -122.415941,47.240321 ]
    },
    "properties": {
    "job_name":"AllSeasonsInc.E26thSt",
    "site_address":"1219 East 26th Street, Tacoma, WA",
    "doc_type":"RG",
    "exp":"TP",
    "year":2018,
    "FIELD8":""
    }
  },
  {
    "type": "Feature",
    "geometry": {
       "type": "Point",
       "coordinates":  [ -122.576721,47.33971 ]
    },
    "properties": {
    "job_name":"Amalani.DanaBella",
    "site_address":"8906 Dana Drive NW, Pierce County, WA",
    "doc_type":"LHGL",
    "exp":"B/TP",
    "year":2016,
    "FIELD8":""
    }
  },
  {
    "type": "Feature",
    "geometry": {
       "type": "Point",
       "coordinates":  [ -122.39899,47.235585 ]
    },
    "properties": {
    "job_name":"AmericanPrestigeHomes.E32ndSt",
    "site_address":"2226 East 32nd Street, Tacoma, WA",
    "doc_type":"SR",
    "exp":"TP",
    "year":2018,
    "FIELD8":""
    }
  },
  {
    "type": "Feature",
    "geometry": {
       "type": "Point",
       "coordinates":  [ -122.601565,47.367624 ]
    },
    "properties": {
    "job_name":"Anderson.47thAveCtNW",
    "site_address":"11909 47th Avenue Court NW, Pierce County, WA",
    "doc_type":"GR",
    "exp":"TP",
    "year":2018,
    "FIELD8":""
    }
  },
  {
    "type": "Feature",
    "geometry": {
       "type": "Point",
       "coordinates":  [ -122.26523,46.778843 ]
    },
    "properties": {
    "job_name":"Anderson.533rdStE",
    "site_address":"12621 528th Street East, Pierce County, WA",
    "doc_type":"RH",
    "exp":"None",
    "year":2017,
    "FIELD8":""
    }
  },
  {
    "type": "Feature",
    "geometry": {
       "type": "Point",
       "coordinates":  [ -122.661486,47.327136 ]
    },
    "properties": {
    "job_name":"Anderson.RaftIsland",
    "site_address":"180 Raft Island Drive, Pierce County, WA",
    "doc_type":"LHGL",
    "exp":"None",
    "year":2014,
    "FIELD8":""
    }
  },
  {
    "type": "Feature",
    "geometry": {
       "type": "Point",
       "coordinates":  [ -122.606269,47.240251 ]
    },
    "properties": {
    "job_name":"AndersonA.12thAveFI",
    "site_address":"1072 12th Avenue FI, Pierce County, WA",
    "doc_type":"SR",
    "exp":"None",
    "year":2017,
    "FIELD8":""
    }
  },
  {
    "type": "Feature",
    "geometry": {
       "type": "Point",
       "coordinates":  [ -122.670843,47.324776 ]
    },
    "properties": {
    "job_name":"AndersonP.RaftIslandDrNW",
    "site_address":"221 Raft Island Drive NW, Pierce County, WA",
    "doc_type":"L",
    "exp":"None",
    "year":2017,
    "FIELD8":""
    }
  },
  {
    "type": "Feature",
    "geometry": {
       "type": "Point",
       "coordinates":  [ -122.393606,47.197954 ]
    },
    "properties": {
    "job_name":"AndersonT.64thStE",
    "site_address":"2608 64th Street East, Pierce County, WA",
    "doc_type":"",
    "exp":"None",
    "year":2017,
    "FIELD8":""
    }
  },
  {
    "type": "Feature",
    "geometry": {
       "type": "Point",
       "coordinates":  [ -122.450212,47.403673 ]
    },
    "properties": {
    "job_name":"Andrews.91stPlSW",
    "site_address":"22377 91st Place SW, King County, WA",
    "doc_type":"GHA",
    "exp":"None",
    "year":2017,
    "FIELD8":""
    }
  },
  {
    "type": "Feature",
    "geometry": {
       "type": "Point",
       "coordinates":  [ -123.004913,47.204214 ]
    },
    "properties": {
    "job_name":"Andrews.SkookumViewDr",
    "site_address":"15 SE Skookum View Drive, Mason County, WA",
    "doc_type":"RG",
    "exp":"B",
    "year":2017,
    "FIELD8":""
    }
  },
  {
    "type": "Feature",
    "geometry": {
       "type": "Point",
       "coordinates":  [ -122.577308,47.333858 ]
    },
    "properties": {
    "job_name":"APEX.Eagle Quest",
    "site_address":"87th Street NW & 24th Avenue NW. Gig Harbor, WA",
    "doc_type":"P",
    "exp":"None",
    "year":2014,
    "FIELD8":""
    }
  },
  {
    "type": "Feature",
    "geometry": {
       "type": "Point",
       "coordinates":  [ -122.615951,47.367191 ]
    },
    "properties": {
    "job_name":"ApogeeCapital.CanterwoodBlvd",
    "site_address":"Canterwood Blvd, Gig Harbor, WA",
    "doc_type":"P",
    "exp":"None",
    "year":2018,
    "FIELD8":""
    }
  },
  {
    "type": "Feature",
    "geometry": {
       "type": "Point",
       "coordinates":  [ -122.33605,47.16433 ]
    },
    "properties": {
    "job_name":"AppletonHomes.WoodlandAve",
    "site_address":"10171 Woodland Ave E, Puyallup, WA",
    "doc_type":"DFR",
    "exp":"None",
    "year":2016,
    "FIELD8":""
    }
  },
  {
    "type": "Feature",
    "geometry": {
       "type": "Point",
       "coordinates":  [ -122.537506,47.180336 ]
    },
    "properties": {
    "job_name":"Aquarec.PhillipsRdSW",
    "site_address":"8402 Phillips Road SW, Lakewood, WA",
    "doc_type":"DFR",
    "exp":"None",
    "year":2017,
    "FIELD8":""
    }
  },
  {
    "type": "Feature",
    "geometry": {
       "type": "Point",
       "coordinates":  [ -122.558577,47.235803 ]
    },
    "properties": {
    "job_name":"ArchitecturalServices.ChoResidence",
    "site_address":"2613 Parkway Drive West, University Place, WA",
    "doc_type":"GR",
    "exp":"B",
    "year":2017,
    "FIELD8":""
    }
  },
  {
    "type": "Feature",
    "geometry": {
       "type": "Point",
       "coordinates":  [ -122.697171,47.366773 ]
    },
    "properties": {
    "job_name":"Arglen.119thAveKPN",
    "site_address":"11914 119th Avenue KPN, Pierce County, WA",
    "doc_type":"LHGL",
    "exp":"None",
    "year":2016,
    "FIELD8":""
    }
  },
  {
    "type": "Feature",
    "geometry": {
       "type": "Point",
       "coordinates":  [ -122.080701,47.086747 ]
    },
    "properties": {
    "job_name":"Arnhold.TubbsRd",
    "site_address":"Tubbs Road East, Pierce County, WA",
    "doc_type":"LHGl/SR",
    "exp":"HA",
    "year":2016,
    "FIELD8":""
    }
  },
  {
    "type": "Feature",
    "geometry": {
       "type": "Point",
       "coordinates":  [ -122.319651,47.033368 ]
    },
    "properties": {
    "job_name":"AshCreekLandDevelopment.AllyBrook",
    "site_address":"24501  86th Avenue East, Pierce County, WA",
    "doc_type":"RH",
    "exp":"None",
    "year":2018,
    "FIELD8":""
    }
  },
  {
    "type": "Feature",
    "geometry": {
       "type": "Point",
       "coordinates":  [ -122.751875,47.203575 ]
    },
    "properties": {
    "job_name":"AtHomeServices.YeazellRdKPS",
    "site_address":"5817 Yeazell Road KP S, Pierce County, WA",
    "doc_type":"RG",
    "exp":"HA",
    "year":2015,
    "FIELD8":""
    }
  },
  {
    "type": "Feature",
    "geometry": {
       "type": "Point",
       "coordinates":  [ -122.340798,47.251498 ]
    },
    "properties": {
    "job_name":"Auda-GravesP.66thAveE",
    "site_address":"609 66th Avenue East, Pierce County, WA",
    "doc_type":"SR",
    "exp":"TP",
    "year":2017,
    "FIELD8":""
    }
  },
  {
    "type": "Feature",
    "geometry": {
       "type": "Point",
       "coordinates":  [ -122.31819,47.09653 ]
    },
    "properties": {
    "job_name":"Avila.EmeraldWoods",
    "site_address":"176nd St E & 83rd Avenue CT E, Pierce County, WA",
    "doc_type":"DFR",
    "exp":"None",
    "year":2014,
    "FIELD8":""
    }
  },
  {
    "type": "Feature",
    "geometry": {
       "type": "Point",
       "coordinates":  [ -122.582979,47.354686 ]
    },
    "properties": {
    "job_name":"Avramov.33rdAveCtNW",
    "site_address":"10615 33rd Ave Ct NW, Pierce County, WA",
    "doc_type":"LHGL",
    "exp":"HA",
    "year":2018,
    "FIELD8":""
    }
  },
  {
    "type": "Feature",
    "geometry": {
       "type": "Point",
       "coordinates":  [ -122.547764,47.381816 ]
    },
    "properties": {
    "job_name":"Aycrigg.135th",
    "site_address":"901 136th St. Ct. NW, Pierce County, WA",
    "doc_type":"RG",
    "exp":"None",
    "year":2015,
    "FIELD8":""
    }
  },
  {
    "type": "Feature",
    "geometry": {
       "type": "Point",
       "coordinates":  [ -122.335921,46.965838 ]
    },
    "properties": {
    "job_name":"Ayers.71stAveCtE",
    "site_address":"71st Avenue Court East, Pierce County, WA",
    "doc_type":"RH",
    "exp":"None",
    "year":2017,
    "FIELD8":""
    }
  },
  {
    "type": "Feature",
    "geometry": {
       "type": "Point",
       "coordinates":  [ -122.406252,47.133202 ]
    },
    "properties": {
    "job_name":"AzureGreen.Brookdale",
    "site_address":"1802 Brookdale Rd E Pierce County WA",
    "doc_type":"SR",
    "exp":"TP",
    "year":2017,
    "FIELD8":""
    }
  },
  {
    "type": "Feature",
    "geometry": {
       "type": "Point",
       "coordinates":  [ -122.356533,47.117665 ]
    },
    "properties": {
    "job_name":"AzureGreen.Canyon&152nd",
    "site_address":"Canyon Rd Et & 152nd St E Pierce County WA",
    "doc_type":"RH",
    "exp":"TP",
    "year":2016,
    "FIELD8":""
    }
  },
  {
    "type": "Feature",
    "geometry": {
       "type": "Point",
       "coordinates":  [ -122.279844,47.222286 ]
    },
    "properties": {
    "job_name":"AzureGreen.CollinsShortPlat",
    "site_address":"3826 114th Ave E Pierce County WA",
    "doc_type":"RG",
    "exp":"TP",
    "year":2017,
    "FIELD8":""
    }
  },
  {
    "type": "Feature",
    "geometry": {
       "type": "Point",
       "coordinates":  [ -122.121565,47.223261 ]
    },
    "properties": {
    "job_name":"AzureGreen.MaryanskiShortPlat",
    "site_address":"XXX - 40th St E Pierce County WA",
    "doc_type":"RH",
    "exp":"None",
    "year":2017,
    "FIELD8":""
    }
  },
  {
    "type": "Feature",
    "geometry": {
       "type": "Point",
       "coordinates":  [ -122.830042,47.013567 ]
    },
    "properties": {
    "job_name":"AzureGreen.SchilterPlat",
    "site_address":"37th Ave SE & Ingleside Dr SE Lacey WA",
    "doc_type":"L",
    "exp":"TP",
    "year":2018,
    "FIELD8":""
    }
  },
  {
    "type": "Feature",
    "geometry": {
       "type": "Point",
       "coordinates":  [ -122.380762,47.702384 ]
    },
    "properties": {
    "job_name":"B&V.Dodge.BayardAveNW",
    "site_address":"10027 Bayard Ave NW Seattle WA",
    "doc_type":"RG",
    "exp":"None",
    "year":2017,
    "FIELD8":""
    }
  },
  {
    "type": "Feature",
    "geometry": {
       "type": "Point",
       "coordinates":  [ -122.420691,47.319021 ]
    },
    "properties": {
    "job_name":"Badger.MunterRd",
    "site_address":"6823 Munter Ln Northeast Pierce County WA",
    "doc_type":"SSR",
    "exp":"HA",
    "year":2017,
    "FIELD8":""
    }
  },
  {
    "type": "Feature",
    "geometry": {
       "type": "Point",
       "coordinates":  [ -122.007384,47.637257 ]
    },
    "properties": {
    "job_name":"Badger.NWRedmondFallCityRd",
    "site_address":"24841 NE Redmond Fall City Rd King County WA",
    "doc_type":"RG",
    "exp":"HA",
    "year":2017,
    "FIELD8":""
    }
  },
  {
    "type": "Feature",
    "geometry": {
       "type": "Point",
       "coordinates":  [ -122.563986,47.405493 ]
    },
    "properties": {
    "job_name":"Bailey.160th",
    "site_address":"6613 SE 160th St Ollala WA",
    "doc_type":"",
    "exp":"None",
    "year":2014,
    "FIELD8":""
    }
  },
  {
    "type": "Feature",
    "geometry": {
       "type": "Point",
       "coordinates":  [ -122.632423,46.649482 ]
    },
    "properties": {
    "job_name":"Baker.SherwoodLn",
    "site_address":"Sherwood Ln Lewis County WA",
    "doc_type":"RG",
    "exp":"None",
    "year":2018,
    "FIELD8":""
    }
  },
  {
    "type": "Feature",
    "geometry": {
       "type": "Point",
       "coordinates":  [ -122.257719,47.174007 ]
    },
    "properties": {
    "job_name":"Bakken.28thStE",
    "site_address":"1804 28th St SE Pierce County WA",
    "doc_type":"",
    "exp":"None",
    "year":2016,
    "FIELD8":""
    }
  },
  {
    "type": "Feature",
    "geometry": {
       "type": "Point",
       "coordinates":  [ -122.627065,47.259098 ]
    },
    "properties": {
    "job_name":"Balsam.EnatiWay",
    "site_address":"795 Enati Wy Fox Island Pierce County WA",
    "doc_type":"RG",
    "exp":"HA",
    "year":2016,
    "FIELD8":""
    }
  },
  {
    "type": "Feature",
    "geometry": {
       "type": "Point",
       "coordinates":  [ -122.722755,47.226124 ]
    },
    "properties": {
    "job_name":"Bamford.34thStKPS",
    "site_address":"13912 34th St KPS Pierce County WA",
    "doc_type":"LHGL",
    "exp":"None",
    "year":2015,
    "FIELD8":""
    }
  },
  {
    "type": "Feature",
    "geometry": {
       "type": "Point",
       "coordinates":  [ -122.683201,47.365537 ]
    },
    "properties": {
    "job_name":"BamfordFamilyLLCII.VipondDrNW",
    "site_address":"10912 Vipond Dr NW Pierce County WA",
    "doc_type":"RG",
    "exp":"B",
    "year":2017,
    "FIELD8":""
    }
  },
  {
    "type": "Feature",
    "geometry": {
       "type": "Point",
       "coordinates":  [ -122.523075,47.851907 ]
    },
    "properties": {
    "job_name":"Bangs.NECountryWoodsLN",
    "site_address":"9175 NE Country Wood Ln Kitsap County WA",
    "doc_type":"SR",
    "exp":"HA",
    "year":2018,
    "FIELD8":""
    }
  },
  {
    "type": "Feature",
    "geometry": {
       "type": "Point",
       "coordinates":  [ -122.623623,47.274437 ]
    },
    "properties": {
    "job_name":"BarbareD.CromwellDr",
    "site_address":"6302 Cromwell Beach Dr Pierce County WA",
    "doc_type":"SEHL",
    "exp":"None",
    "year":2015,
    "FIELD8":""
    }
  },
  {
    "type": "Feature",
    "geometry": {
       "type": "Point",
       "coordinates":  [ -122.522367,46.959076 ]
    },
    "properties": {
    "job_name":"Barcenas.328thStS",
    "site_address":"328th St S Roy WA",
    "doc_type":"LHGL",
    "exp":"None",
    "year":2016,
    "FIELD8":""
    }
  },
  {
    "type": "Feature",
    "geometry": {
       "type": "Point",
       "coordinates":  [ -122.593603,47.174555 ]
    },
    "properties": {
    "job_name":"Barclift.RainierSt",
    "site_address":"2109 Rainier Street Steilacoom, Washington",
    "doc_type":"RG",
    "exp":"TP",
    "year":2015,
    "FIELD8":""
    }
  },
  {
    "type": "Feature",
    "geometry": {
       "type": "Point",
       "coordinates":  [ -122.613279,47.295461 ]
    },
    "properties": {
    "job_name":"Barker.5646LagoonLn",
    "site_address":"5746 Lagoon Ln NW Gig Harbor WA",
    "doc_type":"SR",
    "exp":"HA",
    "year":2016,
    "FIELD8":""
    }
  },
  {
    "type": "Feature",
    "geometry": {
       "type": "Point",
       "coordinates":  [ -122.613024,47.295267 ]
    },
    "properties": {
    "job_name":"Barker.5716LagoonLane",
    "site_address":"5716 Lagoon Ln NW Gig Harbor WA",
    "doc_type":"RG",
    "exp":"HA",
    "year":2016,
    "FIELD8":""
    }
  },
  {
    "type": "Feature",
    "geometry": {
       "type": "Point",
       "coordinates":  [ -122.676916,47.167161 ]
    },
    "properties": {
    "job_name":"Barker.TotemWay",
    "site_address":"1005 Totem Way Anderson Island WA",
    "doc_type":"RG",
    "exp":"B",
    "year":2017,
    "FIELD8":""
    }
  },
  {
    "type": "Feature",
    "geometry": {
       "type": "Point",
       "coordinates":  [ -122.103471,47.44321 ]
    },
    "properties": {
    "job_name":"Barney.ELkDesireDrSE",
    "site_address":"xxx E Lake Desire Dr SE Renton WA",
    "doc_type":"RG",
    "exp":"None",
    "year":2016,
    "FIELD8":""
    }
  },
  {
    "type": "Feature",
    "geometry": {
       "type": "Point",
       "coordinates":  [ -122.58912,47.325106 ]
    },
    "properties": {
    "job_name":"Barnhart.StinsonAve",
    "site_address":"xxx Stinson Ave Gig Harbor",
    "doc_type":"GHA",
    "exp":"TP",
    "year":2018,
    "FIELD8":""
    }
  },
  {
    "type": "Feature",
    "geometry": {
       "type": "Point",
       "coordinates":  [ -122.178775,47.211701 ]
    },
    "properties": {
    "job_name":"Barrett.51stStE",
    "site_address":"18805 51st E Pierce County WA",
    "doc_type":"SEHGR",
    "exp":"None",
    "year":2018,
    "FIELD8":""
    }
  },
  {
    "type": "Feature",
    "geometry": {
       "type": "Point",
       "coordinates":  [ -122.580356,47.361249 ]
    },
    "properties": {
    "job_name":"Barrett.CrescentValleyDrNW",
    "site_address":"11318 Crescent Valley Dr NW Pierce County WA",
    "doc_type":"LHGL",
    "exp":"None",
    "year":2018,
    "FIELD8":""
    }
  },
  {
    "type": "Feature",
    "geometry": {
       "type": "Point",
       "coordinates":  [ -122.562507,47.223794 ]
    },
    "properties": {
    "job_name":"BarrettDev.PalisadesPl",
    "site_address":"3712 Palisades Pl W University Place WA",
    "doc_type":"RG",
    "exp":"TP",
    "year":2013,
    "FIELD8":""
    }
  },
  {
    "type": "Feature",
    "geometry": {
       "type": "Point",
       "coordinates":  [ -122.368099,46.948903 ]
    },
    "properties": {
    "job_name":"Bars.45thAveCtE",
    "site_address":"33811 45th Ave Ct E Pierce County WA",
    "doc_type":"",
    "exp":"HA",
    "year":2017,
    "FIELD8":""
    }
  },
  {
    "type": "Feature",
    "geometry": {
       "type": "Point",
       "coordinates":  [ -122.786272,47.358626 ]
    },
    "properties": {
    "job_name":"Barton.186thAveKPN",
    "site_address":"11002 186th Ave KP N Pierce County WA",
    "doc_type":"SEGHL",
    "exp":"None",
    "year":2018,
    "FIELD8":""
    }
  },
  {
    "type": "Feature",
    "geometry": {
       "type": "Point",
       "coordinates":  [ -122.528489,47.199185 ]
    },
    "properties": {
    "job_name":"BaselineEng.McGuireCreek",
    "site_address":"Bridgeport Wy & 67th Ave W University Place WA",
    "doc_type":"SR",
    "exp":"TP",
    "year":null,
    "FIELD8":""
    }
  },
  {
    "type": "Feature",
    "geometry": {
       "type": "Point",
       "coordinates":  [ -122.23197,47.00352 ]
    },
    "properties": {
    "job_name":"BasicHomes.150thAve",
    "site_address":"27901 150th Ave E Pierce County WA ",
    "doc_type":"RH",
    "exp":"W",
    "year":2017,
    "FIELD8":""
    }
  },
  {
    "type": "Feature",
    "geometry": {
       "type": "Point",
       "coordinates":  [ -122.637441,47.316902 ]
    },
    "properties": {
    "job_name":"Bask.PaddockWoods",
    "site_address":"7318 66th St NW Pierce County WA",
    "doc_type":"SR",
    "exp":"TP",
    "year":2017,
    "FIELD8":""
    }
  },
  {
    "type": "Feature",
    "geometry": {
       "type": "Point",
       "coordinates":  [ -122.63229,47.245592 ]
    },
    "properties": {
    "job_name":"BaskDevelopement.7thCourt",
    "site_address":"946 & 942 7th Ct FI WA",
    "doc_type":"LHGL",
    "exp":"None",
    "year":2017,
    "FIELD8":""
    }
  },
  {
    "type": "Feature",
    "geometry": {
       "type": "Point",
       "coordinates":  [ -122.631498,47.266678 ]
    },
    "properties": {
    "job_name":"BaskDevelopment.ChinookDrFI",
    "site_address":"707 Chinook Dr FI WA",
    "doc_type":"DR",
    "exp":"None",
    "year":2015,
    "FIELD8":""
    }
  },
  {
    "type": "Feature",
    "geometry": {
       "type": "Point",
       "coordinates":  [ -122.29476,47.222063 ]
    },
    "properties": {
    "job_name":"BaskDevelopment.WolfPoint",
    "site_address":"9810 36th St E Edgewood WA",
    "doc_type":"GHA",
    "exp":"None",
    "year":2017,
    "FIELD8":""
    }
  },
  {
    "type": "Feature",
    "geometry": {
       "type": "Point",
       "coordinates":  [ -122.803935,47.219354 ]
    },
    "properties": {
    "job_name":"BaskEnterprises.CampColman",
    "site_address":"20016 Bay Road SW Pierce County WA",
    "doc_type":"LHGL",
    "exp":"None",
    "year":2018,
    "FIELD8":""
    }
  },
  {
    "type": "Feature",
    "geometry": {
       "type": "Point",
       "coordinates":  [ -122.292777,47.178153 ]
    },
    "properties": {
    "job_name":"Basl.2ndStSE",
    "site_address":"1414 2nd St SE Puyallup WA",
    "doc_type":"",
    "exp":"TP",
    "year":2016,
    "FIELD8":""
    }
  },
  {
    "type": "Feature",
    "geometry": {
       "type": "Point",
       "coordinates":  [ -122.370685,47.515259 ]
    },
    "properties": {
    "job_name":"Basl.30thAve",
    "site_address":"9806 30th Ave SW Seattle WA",
    "doc_type":"",
    "exp":"HA",
    "year":2015,
    "FIELD8":""
    }
  },
  {
    "type": "Feature",
    "geometry": {
       "type": "Point",
       "coordinates":  [ -122.243067,47.159694 ]
    },
    "properties": {
    "job_name":"BAT.MorningViewLot10.140thAveE",
    "site_address":"16811 140th Avenue E Puyallup, Washington",
    "doc_type":"L",
    "exp":"None",
    "year":2019,
    "FIELD8":""
    }
  },
  {
    "type": "Feature",
    "geometry": {
       "type": "Point",
       "coordinates":  [ -122.483332,47.452308 ]
    },
    "properties": {
    "job_name":"Batho.115thAveSW",
    "site_address":"17021 115th Ave SW King County WA",
    "doc_type":"SR",
    "exp":"TP",
    "year":2018,
    "FIELD8":""
    }
  },
  {
    "type": "Feature",
    "geometry": {
       "type": "Point",
       "coordinates":  [ -122.300303,47.032733 ]
    },
    "properties": {
    "job_name":"Battle.247thStCtE",
    "site_address":"xxx 247th St Ct E Pierce County WA",
    "doc_type":"LHGL",
    "exp":"None",
    "year":2016,
    "FIELD8":""
    }
  },
  {
    "type": "Feature",
    "geometry": {
       "type": "Point",
       "coordinates":  [ -122.69502,47.284264 ]
    },
    "properties": {
    "job_name":"BattyeK.115thAveNE",
    "site_address":"2916 115th Ave NW Gig Harbor WA",
    "doc_type":"M",
    "exp":"None",
    "year":2017,
    "FIELD8":""
    }
  },
  {
    "type": "Feature",
    "geometry": {
       "type": "Point",
       "coordinates":  [ -122.789198,47.323672 ]
    },
    "properties": {
    "job_name":"Bauer.CrescentBeachDr",
    "site_address":"7304 Crescent Beach Rd KP N Pierce County WA",
    "doc_type":"SR",
    "exp":"TP",
    "year":2018,
    "FIELD8":""
    }
  },
  {
    "type": "Feature",
    "geometry": {
       "type": "Point",
       "coordinates":  [ -122.505642,47.295075 ]
    },
    "properties": {
    "job_name":"Baumgardner.NOrchardSt",
    "site_address":"5109 N 49th St Ruston WA",
    "doc_type":"RG",
    "exp":"B",
    "year":2015,
    "FIELD8":""
    }
  },
  {
    "type": "Feature",
    "geometry": {
       "type": "Point",
       "coordinates":  [ -122.358942,46.982533 ]
    },
    "properties": {
    "job_name":"Baumgartner.301stStE",
    "site_address":"xxx 301th St E Pierce County WA",
    "doc_type":"RH",
    "exp":"None",
    "year":2017,
    "FIELD8":""
    }
  },
  {
    "type": "Feature",
    "geometry": {
       "type": "Point",
       "coordinates":  [ -122.357974,46.894247 ]
    },
    "properties": {
    "job_name":"Baumgartner.398thStE",
    "site_address":"xxx 398th St E Pierce County WA",
    "doc_type":"RH",
    "exp":"None",
    "year":2017,
    "FIELD8":""
    }
  },
  {
    "type": "Feature",
    "geometry": {
       "type": "Point",
       "coordinates":  [ -122.362103,46.928547 ]
    },
    "properties": {
    "job_name":"Baumgartner.50thAveE",
    "site_address":"xxx 50th Ave E Pierce County WA",
    "doc_type":"RH",
    "exp":"None",
    "year":2017,
    "FIELD8":""
    }
  },
  {
    "type": "Feature",
    "geometry": {
       "type": "Point",
       "coordinates":  [ -122.356785,46.963726 ]
    },
    "properties": {
    "job_name":"Baumgartner.MtnHwyE",
    "site_address":"32223 Mt. Hwy E Pierce County WA",
    "doc_type":"RH",
    "exp":"None",
    "year":2017,
    "FIELD8":""
    }
  },
  {
    "type": "Feature",
    "geometry": {
       "type": "Point",
       "coordinates":  [ -122.678582,47.538875 ]
    },
    "properties": {
    "job_name":"Bayaraa.WShermanHeights",
    "site_address":"4797 W Sherman Heights Rd & 2587 State Hwy 3 Kitsap County WA",
    "doc_type":"RG",
    "exp":"TP",
    "year":2018,
    "FIELD8":""
    }
  },
  {
    "type": "Feature",
    "geometry": {
       "type": "Point",
       "coordinates":  [ -122.235802,47.102604 ]
    },
    "properties": {
    "job_name":"Bayes.BalmerLane",
    "site_address":"xxx Balmer Ln Pierce County WA",
    "doc_type":"RH",
    "exp":"None",
    "year":2017,
    "FIELD8":""
    }
  },
  {
    "type": "Feature",
    "geometry": {
       "type": "Point",
       "coordinates":  [ -122.748136,47.296591 ]
    },
    "properties": {
    "job_name":"BayMarine.Abolins",
    "site_address":"4317 – 159th Avenue Court KPN Pierce County, Washington",
    "doc_type":"FL",
    "exp":"None",
    "year":2018,
    "FIELD8":""
    }
  },
  {
    "type": "Feature",
    "geometry": {
       "type": "Point",
       "coordinates":  [ -122.675902,47.330057 ]
    },
    "properties": {
    "job_name":"BayMarine.Andrews",
    "site_address":"79 Raft Island Drive NW Gig Harbor, Washington",
    "doc_type":"P",
    "exp":"B",
    "year":2016,
    "FIELD8":""
    }
  },
  {
    "type": "Feature",
    "geometry": {
       "type": "Point",
       "coordinates":  [ -122.973074,47.086678 ]
    },
    "properties": {
    "job_name":"BayMarine.Ballard_Morgan",
    "site_address":"4324 Sunset Beach Drive NW Olympia, Washington",
    "doc_type":"L",
    "exp":"None",
    "year":2014,
    "FIELD8":""
    }
  },
  {
    "type": "Feature",
    "geometry": {
       "type": "Point",
       "coordinates":  [ -122.74837,47.272719 ]
    },
    "properties": {
    "job_name":"BayMarine.Bender",
    "site_address":"1615 Von Geldern Cove Rd KPN\tHome, WA ",
    "doc_type":"L",
    "exp":"None",
    "year":2016,
    "FIELD8":""
    }
  },
  {
    "type": "Feature",
    "geometry": {
       "type": "Point",
       "coordinates":  [ -122.66459,47.346361 ]
    },
    "properties": {
    "job_name":"BayMarine.Bennedetti",
    "site_address":"9612 – 94th Avenue NW Gig Harbor, Washington",
    "doc_type":"FL",
    "exp":"None",
    "year":2017,
    "FIELD8":""
    }
  },
  {
    "type": "Feature",
    "geometry": {
       "type": "Point",
       "coordinates":  [ -122.871243,47.255014 ]
    },
    "properties": {
    "job_name":"BayMarine.Berndt",
    "site_address":"80 East Aspley Lane Mason County, Washington",
    "doc_type":"RG",
    "exp":"None",
    "year":2018,
    "FIELD8":""
    }
  },
  {
    "type": "Feature",
    "geometry": {
       "type": "Point",
       "coordinates":  [ -122.652156,47.264643 ]
    },
    "properties": {
    "job_name":"BayMarine.Bertinni",
    "site_address":"323 Island Boulevard FI Pierce County, Washington",
    "doc_type":"L",
    "exp":"None",
    "year":2013,
    "FIELD8":""
    }
  },
  {
    "type": "Feature",
    "geometry": {
       "type": "Point",
       "coordinates":  [ -122.687883,47.296253 ]
    },
    "properties": {
    "job_name":"BAyMarine.Bohorfoush",
    "site_address":"4221 Forest Beach Drive NW Gig Harbor, Washington",
    "doc_type":"L",
    "exp":"None",
    "year":2017,
    "FIELD8":""
    }
  },
  {
    "type": "Feature",
    "geometry": {
       "type": "Point",
       "coordinates":  [ -122.681734,47.285497 ]
    },
    "properties": {
    "job_name":"BayMarine.Brown",
    "site_address":"3027 Horsehead Bay Drive NW  Gig Harbor, Washington",
    "doc_type":"FL",
    "exp":"None",
    "year":2017,
    "FIELD8":""
    }
  },
  {
    "type": "Feature",
    "geometry": {
       "type": "Point",
       "coordinates":  [ -122.724386,47.239521 ]
    },
    "properties": {
    "job_name":"BayMarine.Carstetter",
    "site_address":"1923 142nd Avenue S Pierce County, Washington",
    "doc_type":"L",
    "exp":"None",
    "year":2019,
    "FIELD8":""
    }
  },
  {
    "type": "Feature",
    "geometry": {
       "type": "Point",
       "coordinates":  [ -122.624682,47.378665 ]
    },
    "properties": {
    "job_name":"BayMarine.Celestino",
    "site_address":"13212 Purdy Dr NW Gig Harbor WA",
    "doc_type":"L",
    "exp":"None",
    "year":2016,
    "FIELD8":""
    }
  },
  {
    "type": "Feature",
    "geometry": {
       "type": "Point",
       "coordinates":  [ -122.681713,47.285275 ]
    },
    "properties": {
    "job_name":"BayMarine.Chakerian",
    "site_address":"3023 Horsehead Bay Drive SW Gig Harbor, WA ",
    "doc_type":"L",
    "exp":"None",
    "year":2016,
    "FIELD8":""
    }
  },
  {
    "type": "Feature",
    "geometry": {
       "type": "Point",
       "coordinates":  [ -122.660303,47.349483 ]
    },
    "properties": {
    "job_name":"BayMarine.Cliff",
    "site_address":"10002 – 92nd Ave Ct NW Pierce County, Washington",
    "doc_type":"L",
    "exp":"None",
    "year":2019,
    "FIELD8":""
    }
  },
  {
    "type": "Feature",
    "geometry": {
       "type": "Point",
       "coordinates":  [ -122.758433,47.270721 ]
    },
    "properties": {
    "job_name":"BayMarine.Closner",
    "site_address":"1323-165th Ave KPN Lakebay, Washington",
    "doc_type":"L",
    "exp":"None",
    "year":2018,
    "FIELD8":""
    }
  },
  {
    "type": "Feature",
    "geometry": {
       "type": "Point",
       "coordinates":  [ -122.80957,47.27782 ]
    },
    "properties": {
    "job_name":"BayMarine.Cocheran",
    "site_address":"xxx – 22nd Street Gig Harbor, Washington",
    "doc_type":"L",
    "exp":"None",
    "year":2014,
    "FIELD8":""
    }
  },
  {
    "type": "Feature",
    "geometry": {
       "type": "Point",
       "coordinates":  [ -122.585901,47.343252 ]
    },
    "properties": {
    "job_name":"BayMarine.Connors",
    "site_address":"9315 N Harborview Drive Gig Harbor, WA  ",
    "doc_type":"L",
    "exp":"None",
    "year":2016,
    "FIELD8":""
    }
  },
  {
    "type": "Feature",
    "geometry": {
       "type": "Point",
       "coordinates":  [ -122.669197,47.331811 ]
    },
    "properties": {
    "job_name":"BayMarine.Cook",
    "site_address":"131 Maple Lane Gig Harbor, Washington",
    "doc_type":"L",
    "exp":"None",
    "year":2018,
    "FIELD8":""
    }
  },
  {
    "type": "Feature",
    "geometry": {
       "type": "Point",
       "coordinates":  [ -123.062004,47.206533 ]
    },
    "properties": {
    "job_name":"BayMarine.Copeland",
    "site_address":"91 E Orchard Lane Mason County, WA ",
    "doc_type":"RG",
    "exp":"None",
    "year":2015,
    "FIELD8":""
    }
  },
  {
    "type": "Feature",
    "geometry": {
       "type": "Point",
       "coordinates":  [ -122.648068,47.357085 ]
    },
    "properties": {
    "job_name":"BayMarine.Dillon",
    "site_address":"10820 – 82nd Avenue NW Pierce County, Washington",
    "doc_type":"LHGL",
    "exp":"None",
    "year":2015,
    "FIELD8":""
    }
  },
  {
    "type": "Feature",
    "geometry": {
       "type": "Point",
       "coordinates":  [ -122.881245,47.185603 ]
    },
    "properties": {
    "job_name":"BayMarine.Donham",
    "site_address":"900 East Burgundy Road Mason County, Washington",
    "doc_type":"RG",
    "exp":"HA",
    "year":2017,
    "FIELD8":""
    }
  },
  {
    "type": "Feature",
    "geometry": {
       "type": "Point",
       "coordinates":  [ -122.646119,47.358389 ]
    },
    "properties": {
    "job_name":"BayMarine.Fabulich",
    "site_address":"7923 110Th St NW Gig Harbor, Washington ",
    "doc_type":"BH/L",
    "exp":"None",
    "year":2016,
    "FIELD8":""
    }
  },
  {
    "type": "Feature",
    "geometry": {
       "type": "Point",
       "coordinates":  [ -122.832847,47.333838 ]
    },
    "properties": {
    "job_name":"Baymarine.FairHarborLane",
    "site_address":"70 E FairHarbor Lane Mason County, Washington",
    "doc_type":"F",
    "exp":"None",
    "year":2016,
    "FIELD8":""
    }
  },
  {
    "type": "Feature",
    "geometry": {
       "type": "Point",
       "coordinates":  [ -122.66282,47.347479 ]
    },
    "properties": {
    "job_name":"BayMarine.Falk",
    "site_address":"9716 – 94th Avenue NW Gig Harbor, Washington",
    "doc_type":"L",
    "exp":"None",
    "year":2014,
    "FIELD8":""
    }
  },
  {
    "type": "Feature",
    "geometry": {
       "type": "Point",
       "coordinates":  [ -122.654017,47.334963 ]
    },
    "properties": {
    "job_name":"BayMarine.Giese",
    "site_address":"8516 – 86th Avenue Northwest Pierce County, Washington",
    "doc_type":"L",
    "exp":"None",
    "year":2018,
    "FIELD8":""
    }
  },
  {
    "type": "Feature",
    "geometry": {
       "type": "Point",
       "coordinates":  [ -122.648947,47.266649 ]
    },
    "properties": {
    "job_name":"BayMarine.Grey",
    "site_address":"311 Island Boulevard FI Fox Island, Washington",
    "doc_type":"FL",
    "exp":"None",
    "year":2015,
    "FIELD8":""
    }
  },
  {
    "type": "Feature",
    "geometry": {
       "type": "Point",
       "coordinates":  [ -122.630965,47.368796 ]
    },
    "properties": {
    "job_name":"BayMarine.Harrington",
    "site_address":"6915 Sunset View Dr NW  Gig Harbor, Washington",
    "doc_type":"L",
    "exp":"None",
    "year":2014,
    "FIELD8":""
    }
  },
  {
    "type": "Feature",
    "geometry": {
       "type": "Point",
       "coordinates":  [ -122.815195,47.274561 ]
    },
    "properties": {
    "job_name":"BayMarine.Headly_Malden",
    "site_address":"1818 N. Herron Road Lakebay, Washington",
    "doc_type":"BH/L",
    "exp":"None",
    "year":2013,
    "FIELD8":""
    }
  },
  {
    "type": "Feature",
    "geometry": {
       "type": "Point",
       "coordinates":  [ -122.922547,47.244516 ]
    },
    "properties": {
    "job_name":"BayMarine.Hoeksema",
    "site_address":"61 E Howard Cove Ln Shelton, WA 98584 ",
    "doc_type":"L",
    "exp":"None",
    "year":2016,
    "FIELD8":""
    }
  },
  {
    "type": "Feature",
    "geometry": {
       "type": "Point",
       "coordinates":  [ -122.806807,47.280564 ]
    },
    "properties": {
    "job_name":"BayMarine.Hubbert",
    "site_address":"2514 North Herron Road Lakebay, Washington\t",
    "doc_type":"L",
    "exp":"None",
    "year":2014,
    "FIELD8":""
    }
  },
  {
    "type": "Feature",
    "geometry": {
       "type": "Point",
       "coordinates":  [ -122.350986,47.433406 ]
    },
    "properties": {
    "job_name":"BayMarine.Jensen",
    "site_address":"18831 Edgecliff Drive SW Normandy Park, Washington ",
    "doc_type":"GHA",
    "exp":"None",
    "year":2014,
    "FIELD8":""
    }
  },
  {
    "type": "Feature",
    "geometry": {
       "type": "Point",
       "coordinates":  [ -122.833985,47.316095 ]
    },
    "properties": {
    "job_name":"BayMarine.Johnson.MC",
    "site_address":"171 East Grape Drive Mason County, WA ",
    "doc_type":"RG",
    "exp":"None",
    "year":2016,
    "FIELD8":""
    }
  },
  {
    "type": "Feature",
    "geometry": {
       "type": "Point",
       "coordinates":  [ -122.703055,47.351626 ]
    },
    "properties": {
    "job_name":"BayMarine.Kelly",
    "site_address":"10211 124th Avenue KN Pierce County WA",
    "doc_type":"FL",
    "exp":"None",
    "year":2008,
    "FIELD8":""
    }
  },
  {
    "type": "Feature",
    "geometry": {
       "type": "Point",
       "coordinates":  [ -122.714423,47.34374 ]
    },
    "properties": {
    "job_name":"BayMarine.Krippaehne.SEHR.r.doc",
    "site_address":"13216 Thomas Road, KPN Pierce County, Washington",
    "doc_type":"SEHR",
    "exp":"None",
    "year":2013,
    "FIELD8":""
    }
  },
  {
    "type": "Feature",
    "geometry": {
       "type": "Point",
       "coordinates":  [ -122.597484,47.240346 ]
    },
    "properties": {
    "job_name":"BayMarine.Manjarrez-Scully",
    "site_address":"1075 – 13th Lane FI Fox Island, Washington",
    "doc_type":"L",
    "exp":"None",
    "year":2018,
    "FIELD8":""
    }
  },
  {
    "type": "Feature",
    "geometry": {
       "type": "Point",
       "coordinates":  [ -122.807761,47.163185 ]
    },
    "properties": {
    "job_name":"BayMarine.Manke",
    "site_address":"9020 Baird Rd Thurston County, Washington",
    "doc_type":"SP/F",
    "exp":"None",
    "year":2015,
    "FIELD8":""
    }
  },
  {
    "type": "Feature",
    "geometry": {
       "type": "Point",
       "coordinates":  [ -122.695744,47.286403 ]
    },
    "properties": {
    "job_name":"BayMarine.Matthews",
    "site_address":"3202 – 117th Avenue NW Gig Harbor, Washington",
    "doc_type":"L",
    "exp":"None",
    "year":2017,
    "FIELD8":""
    }
  },
  {
    "type": "Feature",
    "geometry": {
       "type": "Point",
       "coordinates":  [ -122.809891,47.277256 ]
    },
    "properties": {
    "job_name":"BayMarine.McCleerey",
    "site_address":"2108 N Herron Road Olympia, WA 98506 Pierce County, WA ",
    "doc_type":"BH",
    "exp":"None",
    "year":2014,
    "FIELD8":""
    }
  },
  {
    "type": "Feature",
    "geometry": {
       "type": "Point",
       "coordinates":  [ -122.733404,47.245883 ]
    },
    "properties": {
    "job_name":"BayMarine.Meserve",
    "site_address":"1211 – 148th Avenue SW Pierce County, Washington",
    "doc_type":"SEHGR",
    "exp":"None",
    "year":2019,
    "FIELD8":""
    }
  },
  {
    "type": "Feature",
    "geometry": {
       "type": "Point",
       "coordinates":  [ -122.64683,47.265316 ]
    },
    "properties": {
    "job_name":"BayMarine.Middleton",
    "site_address":"357 – Island Blvd FI Fox Island, Washington",
    "doc_type":"L",
    "exp":"None",
    "year":2014,
    "FIELD8":""
    }
  },
  {
    "type": "Feature",
    "geometry": {
       "type": "Point",
       "coordinates":  [ -122.700482,47.352584 ]
    },
    "properties": {
    "job_name":"BayMarine.MinterBeachAccess",
    "site_address":"xxx – 104th Street KPN Gig Harbor, WA  ",
    "doc_type":"BH",
    "exp":"None",
    "year":2013,
    "FIELD8":""
    }
  },
  {
    "type": "Feature",
    "geometry": {
       "type": "Point",
       "coordinates":  [ -122.874651,47.164968 ]
    },
    "properties": {
    "job_name":"BayMarine.Monrad",
    "site_address":"671 E Dana Drive Mason County, WA ",
    "doc_type":"RG",
    "exp":"None",
    "year":2014,
    "FIELD8":""
    }
  },
  {
    "type": "Feature",
    "geometry": {
       "type": "Point",
       "coordinates":  [ -122.655421,47.330643 ]
    },
    "properties": {
    "job_name":"BayMarine.Monson",
    "site_address":"8715 Rosedale Street NW Gig Harbor, Washington",
    "doc_type":"L",
    "exp":"None",
    "year":2015,
    "FIELD8":""
    }
  },
  {
    "type": "Feature",
    "geometry": {
       "type": "Point",
       "coordinates":  [ -122.74884,47.269717 ]
    },
    "properties": {
    "job_name":"BayMarine.Muse",
    "site_address":"1309 Lorenz Road KPN Lakebay, Washington",
    "doc_type":"L",
    "exp":"None",
    "year":2015,
    "FIELD8":""
    }
  },
  {
    "type": "Feature",
    "geometry": {
       "type": "Point",
       "coordinates":  [ -122.805157,47.279997 ]
    },
    "properties": {
    "job_name":"BayMarine.Nelsen",
    "site_address":"xxxx North Herron Road Lakebay, Washington",
    "doc_type":"L",
    "exp":"None",
    "year":2014,
    "FIELD8":""
    }
  },
  {
    "type": "Feature",
    "geometry": {
       "type": "Point",
       "coordinates":  [ -122.573157,47.326744 ]
    },
    "properties": {
    "job_name":"BayMarine.Nicholas",
    "site_address":"7515 Goodman Drive NW Pierce County, Washington",
    "doc_type":"SEHGR",
    "exp":"None",
    "year":2017,
    "FIELD8":""
    }
  },
  {
    "type": "Feature",
    "geometry": {
       "type": "Point",
       "coordinates":  [ -122.754078,47.288197 ]
    },
    "properties": {
    "job_name":"BayMarine.Odash",
    "site_address":"16407 33rd Street Court KPN Lakebay, Washington",
    "doc_type":"L",
    "exp":"None",
    "year":2014,
    "FIELD8":""
    }
  },
  {
    "type": "Feature",
    "geometry": {
       "type": "Point",
       "coordinates":  [ -122.601236,47.279181 ]
    },
    "properties": {
    "job_name":"BayMarine.OHaleck",
    "site_address":"2315 & 2319 48th Ave Gig Harbor, Washington",
    "doc_type":"L",
    "exp":"None",
    "year":2014,
    "FIELD8":""
    }
  },
  {
    "type": "Feature",
    "geometry": {
       "type": "Point",
       "coordinates":  [ -122.648204,47.265873 ]
    },
    "properties": {
    "job_name":"Baymarine.Ostoich",
    "site_address":"337 Island Boulevard FI  Fox Island, Washington",
    "doc_type":"RG",
    "exp":"None",
    "year":2014,
    "FIELD8":""
    }
  },
  {
    "type": "Feature",
    "geometry": {
       "type": "Point",
       "coordinates":  [ -122.689034,47.293826 ]
    },
    "properties": {
    "job_name":"BayMarine.Payne",
    "site_address":"4008 Forest Beach Drive NW Gig Harbor, Washington",
    "doc_type":"L",
    "exp":"None",
    "year":2013,
    "FIELD8":""
    }
  },
  {
    "type": "Feature",
    "geometry": {
       "type": "Point",
       "coordinates":  [ -122.815974,47.271758 ]
    },
    "properties": {
    "job_name":"BayMarine.Rees",
    "site_address":"1512 N Herron Road Lakebay, WA  ",
    "doc_type":"BH",
    "exp":"None",
    "year":2013,
    "FIELD8":""
    }
  },
  {
    "type": "Feature",
    "geometry": {
       "type": "Point",
       "coordinates":  [ -122.813308,47.16967 ]
    },
    "properties": {
    "job_name":"BayMarine.Reus",
    "site_address":"9602 Cascade Loop NE Olympia, WA  98506",
    "doc_type":"BH",
    "exp":"None",
    "year":2014,
    "FIELD8":""
    }
  },
  {
    "type": "Feature",
    "geometry": {
       "type": "Point",
       "coordinates":  [ -122.64597,47.377801 ]
    },
    "properties": {
    "job_name":"BayMarine.Robbins",
    "site_address":"8020 SR 302 NW Gig Harbor, Washington",
    "doc_type":"L",
    "exp":"None",
    "year":2015,
    "FIELD8":""
    }
  },
  {
    "type": "Feature",
    "geometry": {
       "type": "Point",
       "coordinates":  [ -122.639172,47.360306 ]
    },
    "properties": {
    "job_name":"BayMarine.Roberts",
    "site_address":"11224 - 74th Ave NW Gig Harbor, Washington                     ",
    "doc_type":"RG",
    "exp":"HA",
    "year":2015,
    "FIELD8":""
    }
  },
  {
    "type": "Feature",
    "geometry": {
       "type": "Point",
       "coordinates":  [ -122.748984,47.196271 ]
    },
    "properties": {
    "job_name":"BayMarine.Rogers",
    "site_address":"6703 – 159th Ave SW Longbranch, Washington",
    "doc_type":"L",
    "exp":"None",
    "year":2018,
    "FIELD8":""
    }
  },
  {
    "type": "Feature",
    "geometry": {
       "type": "Point",
       "coordinates":  [ -122.808467,47.278386 ]
    },
    "properties": {
    "job_name":"BayMarine.Rose",
    "site_address":"2208 North Herron Rd KPN Lakebay, WA ",
    "doc_type":"L",
    "exp":"None",
    "year":2016,
    "FIELD8":""
    }
  },
  {
    "type": "Feature",
    "geometry": {
       "type": "Point",
       "coordinates":  [ -123.044591,47.238288 ]
    },
    "properties": {
    "job_name":"BayMarine.Rumbaugh",
    "site_address":"210 E Beaver Lane Shelton, Washington",
    "doc_type":"L",
    "exp":"None",
    "year":2014,
    "FIELD8":""
    }
  },
  {
    "type": "Feature",
    "geometry": {
       "type": "Point",
       "coordinates":  [ -122.733413,47.24583 ]
    },
    "properties": {
    "job_name":"BayMarine.Sanders",
    "site_address":"1213 – 148th Avenue SW Pierce County, Washington",
    "doc_type":"SEHGR",
    "exp":"None",
    "year":2019,
    "FIELD8":""
    }
  },
  {
    "type": "Feature",
    "geometry": {
       "type": "Point",
       "coordinates":  [ -122.649079,47.266857 ]
    },
    "properties": {
    "job_name":"BayMarine.Seher",
    "site_address":"307 Island Boulevard FI Pierce County, Washington",
    "doc_type":"L",
    "exp":"None",
    "year":2014,
    "FIELD8":""
    }
  },
  {
    "type": "Feature",
    "geometry": {
       "type": "Point",
       "coordinates":  [ -122.826347,47.318166 ]
    },
    "properties": {
    "job_name":"BayMarine.Seidel",
    "site_address":"200 East Sund Road Mason County, WA ",
    "doc_type":"L",
    "exp":"None",
    "year":2013,
    "FIELD8":""
    }
  },
  {
    "type": "Feature",
    "geometry": {
       "type": "Point",
       "coordinates":  [ -122.666146,47.344278 ]
    },
    "properties": {
    "job_name":"BayMarine.Serfass",
    "site_address":"xxx – 94th Avenue NW Gig Harbor, WA ",
    "doc_type":"L",
    "exp":"None",
    "year":2015,
    "FIELD8":""
    }
  },
  {
    "type": "Feature",
    "geometry": {
       "type": "Point",
       "coordinates":  [ -122.582998,47.339256 ]
    },
    "properties": {
    "job_name":"BayMarine.Simons",
    "site_address":"8906 Randall Dr NW Gig Harbor, Washington",
    "doc_type":"L",
    "exp":"None",
    "year":2015,
    "FIELD8":""
    }
  },
  {
    "type": "Feature",
    "geometry": {
       "type": "Point",
       "coordinates":  [ -122.655092,47.331303 ]
    },
    "properties": {
    "job_name":"BayMarine.Sorensen",
    "site_address":"8114 – 86th Avenue NE Gig Harbor, Washington",
    "doc_type":"L",
    "exp":"None",
    "year":2014,
    "FIELD8":""
    }
  },
  {
    "type": "Feature",
    "geometry": {
       "type": "Point",
       "coordinates":  [ -122.745116,47.302008 ]
    },
    "properties": {
    "job_name":"BayMarine.Swanes",
    "site_address":"4903 – 157th Avenue KPN Pierce County, Washington",
    "doc_type":"L",
    "exp":"None",
    "year":2017,
    "FIELD8":""
    }
  },
  {
    "type": "Feature",
    "geometry": {
       "type": "Point",
       "coordinates":  [ -122.572225,47.327739 ]
    },
    "properties": {
    "job_name":"BayMarine.Traaen",
    "site_address":"7701 Goodman Drive NW Gig Harbor, Washington",
    "doc_type":"L",
    "exp":"None",
    "year":2015,
    "FIELD8":""
    }
  },
  {
    "type": "Feature",
    "geometry": {
       "type": "Point",
       "coordinates":  [ -122.731194,47.33654 ]
    },
    "properties": {
    "job_name":"BayMarine.Traugutt",
    "site_address":"8705 – 146th Avenue KPN Lakebay, Washington",
    "doc_type":"L",
    "exp":"None",
    "year":2017,
    "FIELD8":""
    }
  },
  {
    "type": "Feature",
    "geometry": {
       "type": "Point",
       "coordinates":  [ -122.688137,47.293809 ]
    },
    "properties": {
    "job_name":"BayMarine.Wall",
    "site_address":"4007 Forest Beach Drive NW Gig Harbor, Washington",
    "doc_type":"L",
    "exp":"None",
    "year":2017,
    "FIELD8":""
    }
  },
  {
    "type": "Feature",
    "geometry": {
       "type": "Point",
       "coordinates":  [ -122.813437,47.267257 ]
    },
    "properties": {
    "job_name":"BayMarine.Wangeman",
    "site_address":"1010 North Herron Road KPN Pierce County, Washington ",
    "doc_type":"SEHR/L",
    "exp":"None",
    "year":2017,
    "FIELD8":""
    }
  },
  {
    "type": "Feature",
    "geometry": {
       "type": "Point",
       "coordinates":  [ -122.554449,47.352485 ]
    },
    "properties": {
    "job_name":"BayMarine.Weymiller",
    "site_address":"xxxxx – Sunrise Beach Drive Northwest Gig Harbor, Washington",
    "doc_type":"L",
    "exp":"None",
    "year":2017,
    "FIELD8":""
    }
  },
  {
    "type": "Feature",
    "geometry": {
       "type": "Point",
       "coordinates":  [ -122.843126,47.210873 ]
    },
    "properties": {
    "job_name":"BayMarine.Wheelis",
    "site_address":"1221 East Point Wilson Road Mason County, WA ",
    "doc_type":"RG",
    "exp":"None",
    "year":2016,
    "FIELD8":""
    }
  },
  {
    "type": "Feature",
    "geometry": {
       "type": "Point",
       "coordinates":  [ -122.66424,47.346742 ]
    },
    "properties": {
    "job_name":"BayMarine.Wiley",
    "site_address":"9624 – 94th Avenue Northwest  Gig Harbor, Washington",
    "doc_type":"L",
    "exp":"None",
    "year":2017,
    "FIELD8":""
    }
  },
  {
    "type": "Feature",
    "geometry": {
       "type": "Point",
       "coordinates":  [ -122.798377,47.360484 ]
    },
    "properties": {
    "job_name":"BayMarine.Woodhams",
    "site_address":"11211 – 196th Avenue KPN Pierce County, Washington",
    "doc_type":"SEHGR",
    "exp":"None",
    "year":2017,
    "FIELD8":""
    }
  },
  {
    "type": "Feature",
    "geometry": {
       "type": "Point",
       "coordinates":  [ -122.268128,47.017096 ]
    },
    "properties": {
    "job_name":"Bays.122ndAve",
    "site_address":"xxx 122nd Ave E Pierce County WA",
    "doc_type":"RH",
    "exp":"None",
    "year":2017,
    "FIELD8":""
    }
  },
  {
    "type": "Feature",
    "geometry": {
       "type": "Point",
       "coordinates":  [ -122.677219,47.544089 ]
    },
    "properties": {
    "job_name":"BayviewContractors.1stAveW",
    "site_address":"2030 1st Ave W Kitsap County WA",
    "doc_type":"GHA",
    "exp":"None",
    "year":2018,
    "FIELD8":""
    }
  },
  {
    "type": "Feature",
    "geometry": {
       "type": "Point",
       "coordinates":  [ -122.644294,47.385428 ]
    },
    "properties": {
    "job_name":"BayviewContractors.79StCtNW",
    "site_address":"15121 79th Ave Ct NW Pierce County WA",
    "doc_type":"LHGL",
    "exp":"None",
    "year":2018,
    "FIELD8":""
    }
  },
  {
    "type": "Feature",
    "geometry": {
       "type": "Point",
       "coordinates":  [ -122.607951,47.710955 ]
    },
    "properties": {
    "job_name":"BayviewContractors.LemoloShoreDrNE",
    "site_address":"xxx Lemolo Shore Dr NE Kitsap County WA",
    "doc_type":"GHA",
    "exp":"None",
    "year":2018,
    "FIELD8":""
    }
  },
  {
    "type": "Feature",
    "geometry": {
       "type": "Point",
       "coordinates":  [ -122.675801,47.565753 ]
    },
    "properties": {
    "job_name":"BayVistaLLC.RussellRd",
    "site_address":"Bay Vista Blvd & Russell Rd Bremerton WA",
    "doc_type":"RH",
    "exp":"TP",
    "year":2018,
    "FIELD8":""
    }
  },
  {
    "type": "Feature",
    "geometry": {
       "type": "Point",
       "coordinates":  [ -122.065625,47.098172 ]
    },
    "properties": {
    "job_name":"BBHomes.173rdStE",
    "site_address":"xxx 173rd St E Pierce County WA",
    "doc_type":"LHGL",
    "exp":"None",
    "year":2018,
    "FIELD8":""
    }
  },
  {
    "type": "Feature",
    "geometry": {
       "type": "Point",
       "coordinates":  [ -122.389296,47.222485 ]
    },
    "properties": {
    "job_name":"BBHomes.29thAveCtE",
    "site_address":"3807 – 29th Avenue Court East Pierce County, Washington",
    "doc_type":"LHGL",
    "exp":"None",
    "year":2019,
    "FIELD8":""
    }
  },
  {
    "type": "Feature",
    "geometry": {
       "type": "Point",
       "coordinates":  [ -122.661117,47.375699 ]
    },
    "properties": {
    "job_name":"BCJCInvestments.129thStCtNW",
    "site_address":"xxx – 129th Street Court Northwest Pierce County, Washington",
    "doc_type":"LHGL",
    "exp":"None",
    "year":2019,
    "FIELD8":""
    }
  },
  {
    "type": "Feature",
    "geometry": {
       "type": "Point",
       "coordinates":  [ -122.599509,47.240657 ]
    },
    "properties": {
    "job_name":"Bear.13thAveFI",
    "site_address":"1090 13th Ave FI WA",
    "doc_type":"RG",
    "exp":"TP",
    "year":2018,
    "FIELD8":""
    }
  },
  {
    "type": "Feature",
    "geometry": {
       "type": "Point",
       "coordinates":  [ -122.573996,47.332123 ]
    },
    "properties": {
    "job_name":"Beard.81stStCtNW",
    "site_address":"8103 Goodman Drive NW Pierce County, Washington",
    "doc_type":"RG",
    "exp":"B",
    "year":2019,
    "FIELD8":""
    }
  },
  {
    "type": "Feature",
    "geometry": {
       "type": "Point",
       "coordinates":  [ -122.2375,47.171964 ]
    },
    "properties": {
    "job_name":"Beardsley.43rdSt",
    "site_address":"2111 43rd St SE Puyallup WA",
    "doc_type":"GHA",
    "exp":"TP",
    "year":2016,
    "FIELD8":""
    }
  },
  {
    "type": "Feature",
    "geometry": {
       "type": "Point",
       "coordinates":  [ -122.292187,46.996119 ]
    },
    "properties": {
    "job_name":"Beaulieu.105thAveE",
    "site_address":"xxx 105th Ave E Pierce County WA",
    "doc_type":"RH",
    "exp":"W",
    "year":2017,
    "FIELD8":""
    }
  },
  {
    "type": "Feature",
    "geometry": {
       "type": "Point",
       "coordinates":  [ -122.754122,47.317416 ]
    },
    "properties": {
    "job_name":"BeaushawL.PollackDrKPN",
    "site_address":"XXX Pollack Drive KP N Pierce County, Washington",
    "doc_type":"F",
    "exp":"None",
    "year":2015,
    "FIELD8":""
    }
  },
  {
    "type": "Feature",
    "geometry": {
       "type": "Point",
       "coordinates":  [ -122.575743,47.331531 ]
    },
    "properties": {
    "job_name":"Beckel.Goodman",
    "site_address":"8024 Goodman Dr NW Pierce County WA",
    "doc_type":"RG",
    "exp":"TP/PH",
    "year":2015,
    "FIELD8":""
    }
  },
  {
    "type": "Feature",
    "geometry": {
       "type": "Point",
       "coordinates":  [ -122.606092,47.292774 ]
    },
    "properties": {
    "job_name":"BedrockHomesConstruction.Eastbay",
    "site_address":"4827 38th St NE Gig Harbor WA",
    "doc_type":"DR",
    "exp":"None",
    "year":2015,
    "FIELD8":""
    }
  },
  {
    "type": "Feature",
    "geometry": {
       "type": "Point",
       "coordinates":  [ -122.213514,47.56377 ]
    },
    "properties": {
    "job_name":"BeermanW.SE 46thSt",
    "site_address":"46th St & Dawn Dr MI King County WA",
    "doc_type":"",
    "exp":"None",
    "year":2018,
    "FIELD8":""
    }
  },
  {
    "type": "Feature",
    "geometry": {
       "type": "Point",
       "coordinates":  [ -122.750539,47.310394 ]
    },
    "properties": {
    "job_name":"Beesinger.KPHWYN",
    "site_address":"5817 Key Peninsula Hwy N Pierce County WA",
    "doc_type":"HA",
    "exp":"None",
    "year":2017,
    "FIELD8":""
    }
  },
  {
    "type": "Feature",
    "geometry": {
       "type": "Point",
       "coordinates":  [ -122.319359,47.912502 ]
    },
    "properties": {
    "job_name":"Begis.63rdPlW",
    "site_address":"9410 63rd Pl W Mukilteo WA",
    "doc_type":"RG",
    "exp":"B",
    "year":2017,
    "FIELD8":""
    }
  },
  {
    "type": "Feature",
    "geometry": {
       "type": "Point",
       "coordinates":  [ -122.31025,47.914759 ]
    },
    "properties": {
    "job_name":"Begis.92ndPlW",
    "site_address":"5717 92nd Pl SW Mukilteo WA",
    "doc_type":"L",
    "exp":"None",
    "year":2016,
    "FIELD8":""
    }
  },
  {
    "type": "Feature",
    "geometry": {
       "type": "Point",
       "coordinates":  [ -122.326,47.883956 ]
    },
    "properties": {
    "job_name":"Begis.MarineViewDr",
    "site_address":"12615 Marine View Dr Snohomish County WA",
    "doc_type":"RG",
    "exp":"B",
    "year":2017,
    "FIELD8":""
    }
  },
  {
    "type": "Feature",
    "geometry": {
       "type": "Point",
       "coordinates":  [ -122.329322,47.884582 ]
    },
    "properties": {
    "job_name":"Begis.PossessionLane",
    "site_address":"12529 Possession Ln Snohomish County WA",
    "doc_type":"RG",
    "exp":"B",
    "year":2016,
    "FIELD8":""
    }
  },
  {
    "type": "Feature",
    "geometry": {
       "type": "Point",
       "coordinates":  [ -122.108665,47.117317 ]
    },
    "properties": {
    "job_name":"BellancaHomes.243rdAveE",
    "site_address":"15312 243rd Ave E Pierce County WA",
    "doc_type":"RH",
    "exp":"W",
    "year":2018,
    "FIELD8":""
    }
  },
  {
    "type": "Feature",
    "geometry": {
       "type": "Point",
       "coordinates":  [ -122.544733,47.197523 ]
    },
    "properties": {
    "job_name":"Bellin.65thStCtW",
    "site_address":"8018 65th Street Ct. W University Place WA",
    "doc_type":"DM",
    "exp":"None",
    "year":2017,
    "FIELD8":""
    }
  },
  {
    "type": "Feature",
    "geometry": {
       "type": "Point",
       "coordinates":  [ -122.369587,46.946997 ]
    },
    "properties": {
    "job_name":"Belton.45thAveCtE",
    "site_address":"33716 45th Ave Ct E Pierce County WA",
    "doc_type":"SR",
    "exp":"TP",
    "year":2017,
    "FIELD8":""
    }
  },
  {
    "type": "Feature",
    "geometry": {
       "type": "Point",
       "coordinates":  [ -122.748519,47.272647 ]
    },
    "properties": {
    "job_name":"BenderN.VonGeldernCove",
    "site_address":"1615 Von Geldern Cove Rd KPN Pierce County WA",
    "doc_type":"DR/LHGL",
    "exp":"PH",
    "year":2017,
    "FIELD8":""
    }
  },
  {
    "type": "Feature",
    "geometry": {
       "type": "Point",
       "coordinates":  [ -122.314724,48.012482 ]
    },
    "properties": {
    "job_name":"Benedict.SaratogaDr",
    "site_address":"32-F Saratoga Drive Hat Island, Snohomish County, Washington",
    "doc_type":"RG",
    "exp":"HA",
    "year":2019,
    "FIELD8":""
    }
  },
  {
    "type": "Feature",
    "geometry": {
       "type": "Point",
       "coordinates":  [ -122.295846,46.922103 ]
    },
    "properties": {
    "job_name":"Benham.102ndAve",
    "site_address":"xxx – 102nd Avenue East Pierce County, Washington",
    "doc_type":"RH",
    "exp":"W",
    "year":2017,
    "FIELD8":""
    }
  },
  {
    "type": "Feature",
    "geometry": {
       "type": "Point",
       "coordinates":  [ -122.296762,46.923904 ]
    },
    "properties": {
    "job_name":"BenjaminRyan",
    "site_address":"xxx 102nd Ave E Pierce County WA",
    "doc_type":"RH",
    "exp":"W",
    "year":2017,
    "FIELD8":""
    }
  },
  {
    "type": "Feature",
    "geometry": {
       "type": "Point",
       "coordinates":  [ -122.36957,47.106348 ]
    },
    "properties": {
    "job_name":"BenjaminRyan.Candlewood",
    "site_address":"Military Rd E & 45th Ave E Puyallup WA",
    "doc_type":"DFR",
    "exp":"None",
    "year":2015,
    "FIELD8":""
    }
  },
  {
    "type": "Feature",
    "geometry": {
       "type": "Point",
       "coordinates":  [ -121.701083,46.61158 ]
    },
    "properties": {
    "job_name":"Bennett.CraigRd",
    "site_address":"292 Craig Road Lewis County, Washington",
    "doc_type":"GHA",
    "exp":"None",
    "year":2018,
    "FIELD8":""
    }
  },
  {
    "type": "Feature",
    "geometry": {
       "type": "Point",
       "coordinates":  [ -122.685405,47.306772 ]
    },
    "properties": {
    "job_name":"Bentrott.54thStCtNW",
    "site_address":"11015 – 54th Street Ct NW Pierce County, Washington  ",
    "doc_type":"SR",
    "exp":"HA",
    "year":2019,
    "FIELD8":""
    }
  },
  {
    "type": "Feature",
    "geometry": {
       "type": "Point",
       "coordinates":  [ -122.679977,47.296535 ]
    },
    "properties": {
    "job_name":"Berg.4224HorseheadBayDr",
    "site_address":"4224 Horsehead Bay Dr Gig Harbor WA",
    "doc_type":"RG",
    "exp":"HA",
    "year":2015,
    "FIELD8":""
    }
  },
  {
    "type": "Feature",
    "geometry": {
       "type": "Point",
       "coordinates":  [ -122.688692,47.295359 ]
    },
    "properties": {
    "job_name":"Berg.ForrestBeachDrNW",
    "site_address":"4119 Forest Beach Dr NW Pierce County WA",
    "doc_type":"LHGL/SEHL",
    "exp":"None",
    "year":2016,
    "FIELD8":""
    }
  },
  {
    "type": "Feature",
    "geometry": {
       "type": "Point",
       "coordinates":  [ -122.508867,47.295529 ]
    },
    "properties": {
    "job_name":"Berg.NCourtSt",
    "site_address":"5312 N Ct St Ruston WA",
    "doc_type":"RW",
    "exp":"None",
    "year":2018,
    "FIELD8":""
    }
  },
  {
    "type": "Feature",
    "geometry": {
       "type": "Point",
       "coordinates":  [ -122.276568,47.216804 ]
    },
    "properties": {
    "job_name":"Berger.45thStE",
    "site_address":"11507 45th St E Edgewood WA",
    "doc_type":"DFR",
    "exp":"None",
    "year":2018,
    "FIELD8":""
    }
  },
  {
    "type": "Feature",
    "geometry": {
       "type": "Point",
       "coordinates":  [ -122.682285,47.314074 ]
    },
    "properties": {
    "job_name":"Bergman.Kopachuck",
    "site_address":"10414 Kopachuck Dr NW Pierce County WA",
    "doc_type":"LHGL",
    "exp":"None",
    "year":2017,
    "FIELD8":""
    }
  },
  {
    "type": "Feature",
    "geometry": {
       "type": "Point",
       "coordinates":  [ -122.174501,47.494713 ]
    },
    "properties": {
    "job_name":"Bernasconi.NE7thSt",
    "site_address":"xxx NE 7th St Renton WA",
    "doc_type":"SR",
    "exp":"HA",
    "year":2017,
    "FIELD8":""
    }
  },
  {
    "type": "Feature",
    "geometry": {
       "type": "Point",
       "coordinates":  [ -122.206508,47.475771 ]
    },
    "properties": {
    "job_name":"Bernasconi.WilliamsAve",
    "site_address":"520 Williams Ave S Renton WA ",
    "doc_type":"RH",
    "exp":"HA",
    "year":2015,
    "FIELD8":""
    }
  },
  {
    "type": "Feature",
    "geometry": {
       "type": "Point",
       "coordinates":  [ -122.577145,47.398271 ]
    },
    "properties": {
    "job_name":"Berry.155thStNW",
    "site_address":"xxx 155th Street NW Pierce County WA",
    "doc_type":"LHGL",
    "exp":"None",
    "year":2018,
    "FIELD8":""
    }
  },
  {
    "type": "Feature",
    "geometry": {
       "type": "Point",
       "coordinates":  [ -122.540991,47.20357 ]
    },
    "properties": {
    "job_name":"BerrylandCafe.MainSt",
    "site_address":"12542 69th Ave S Sumner WA",
    "doc_type":"RG",
    "exp":"B",
    "year":2017,
    "FIELD8":""
    }
  },
  {
    "type": "Feature",
    "geometry": {
       "type": "Point",
       "coordinates":  [ -122.599323,47.22341 ]
    },
    "properties": {
    "job_name":"Bertheau.13thLane",
    "site_address":"1527 - 13th Ct. FI Fox Island, Washington 98333",
    "doc_type":"DR/LHGL",
    "exp":"None",
    "year":2019,
    "FIELD8":""
    }
  },
  {
    "type": "Feature",
    "geometry": {
       "type": "Point",
       "coordinates":  [ -122.650434,47.265178 ]
    },
    "properties": {
    "job_name":"Bertini.IslandBlvdFI",
    "site_address":"323 Island Blvd FI WA",
    "doc_type":"RW",
    "exp":"None",
    "year":2015,
    "FIELD8":""
    }
  },
  {
    "type": "Feature",
    "geometry": {
       "type": "Point",
       "coordinates":  [ -122.258648,47.053495 ]
    },
    "properties": {
    "job_name":"Besk.224thStE",
    "site_address":"xxx 224th St E Pierce County WA",
    "doc_type":"SR",
    "exp":"TP",
    "year":2017,
    "FIELD8":""
    }
  },
  {
    "type": "Feature",
    "geometry": {
       "type": "Point",
       "coordinates":  [ -122.766091,47.388102 ]
    },
    "properties": {
    "job_name":"Bessner.WrightBlissRd",
    "site_address":"xxx Wright Bliss Rd KPN Pierce County WA",
    "doc_type":"RH",
    "exp":"W",
    "year":2017,
    "FIELD8":""
    }
  },
  {
    "type": "Feature",
    "geometry": {
       "type": "Point",
       "coordinates":  [ -122.576782,47.347061 ]
    },
    "properties": {
    "job_name":"Bestwick.CrescentValleyDr",
    "site_address":"9717 Crescent Valley Dr NW Pierce County WA",
    "doc_type":"LHGL",
    "exp":"None",
    "year":2017,
    "FIELD8":""
    }
  },
  {
    "type": "Feature",
    "geometry": {
       "type": "Point",
       "coordinates":  [ -122.545025,47.161663 ]
    },
    "properties": {
    "job_name":"BetterBuilt.140thAveE",
    "site_address":"10406 140th Ave E Pierce County WA",
    "doc_type":"LHGL",
    "exp":"None",
    "year":2017,
    "FIELD8":""
    }
  },
  {
    "type": "Feature",
    "geometry": {
       "type": "Point",
       "coordinates":  [ -122.187067,47.23148 ]
    },
    "properties": {
    "job_name":"BetterBuiltHm.Rainier",
    "site_address":"18220 Driftwood Dr E Pierce County WA",
    "doc_type":"DR",
    "exp":"HA",
    "year":2013,
    "FIELD8":""
    }
  },
  {
    "type": "Feature",
    "geometry": {
       "type": "Point",
       "coordinates":  [ -122.276017,47.131895 ]
    },
    "properties": {
    "job_name":"BetterBuiltHomes.114thAveE",
    "site_address":"13707 to 13711 – 114th Ave E Pierce County, Washington ",
    "doc_type":"LHGL",
    "exp":"None",
    "year":2016,
    "FIELD8":""
    }
  },
  {
    "type": "Feature",
    "geometry": {
       "type": "Point",
       "coordinates":  [ -122.374784,47.215104 ]
    },
    "properties": {
    "job_name":"BetterBuiltHomes.47thStCtE",
    "site_address":"3919 47th St Ct E WA",
    "doc_type":"DFR",
    "exp":"None",
    "year":2018,
    "FIELD8":""
    }
  },
  {
    "type": "Feature",
    "geometry": {
       "type": "Point",
       "coordinates":  [ -122.255677,47.206269 ]
    },
    "properties": {
    "job_name":"BetterBuiltHomes.56thStCtE",
    "site_address":"xxx 56th St Ct E Edgewood WA",
    "doc_type":"LHGL",
    "exp":"None",
    "year":2018,
    "FIELD8":""
    }
  },
  {
    "type": "Feature",
    "geometry": {
       "type": "Point",
       "coordinates":  [ -122.345961,47.264298 ]
    },
    "properties": {
    "job_name":"BetterBuiltHomes.62ndAve",
    "site_address":"718 62nd Ave Pierce County WA",
    "doc_type":"L",
    "exp":"None",
    "year":2015,
    "FIELD8":""
    }
  },
  {
    "type": "Feature",
    "geometry": {
       "type": "Point",
       "coordinates":  [ -122.345055,47.252311 ]
    },
    "properties": {
    "job_name":"BetterBuiltHomes.64thAveCtE",
    "site_address":"518 64th Ave Ct E Pierce County WA",
    "doc_type":"LHGL",
    "exp":"None",
    "year":2016,
    "FIELD8":""
    }
  },
  {
    "type": "Feature",
    "geometry": {
       "type": "Point",
       "coordinates":  [ -122.331471,47.173288 ]
    },
    "properties": {
    "job_name":"BetterBuiltHomes.72ndAveE",
    "site_address":"9203 72nd Ave E Puyallup WA",
    "doc_type":"DFR",
    "exp":"None",
    "year":2018,
    "FIELD8":""
    }
  },
  {
    "type": "Feature",
    "geometry": {
       "type": "Point",
       "coordinates":  [ -122.0525,47.39616 ]
    },
    "properties": {
    "job_name":"BetterBuiltHomes.SE232ndSt",
    "site_address":"21476 SE 232nd St Maple Valley WA",
    "doc_type":"",
    "exp":"",
    "year":2016,
    "FIELD8":""
    }
  },
  {
    "type": "Feature",
    "geometry": {
       "type": "Point",
       "coordinates":  [ -122.462353,47.240446 ]
    },
    "properties": {
    "job_name":"BetterHomes.SSpraugeAve",
    "site_address":"2101 South Sprague Avenue Tacoma, Washington",
    "doc_type":"SR",
    "exp":"TP",
    "year":2019,
    "FIELD8":""
    }
  },
  {
    "type": "Feature",
    "geometry": {
       "type": "Point",
       "coordinates":  [ -122.323926,47.376799 ]
    },
    "properties": {
    "job_name":"BetterPropertiesPugetSound.8thPlace",
    "site_address":"25107 8th Pl S Des Moines WA",
    "doc_type":"LHGL/DR/SR",
    "exp":"None",
    "year":2002,
    "FIELD8":""
    }
  },
  {
    "type": "Feature",
    "geometry": {
       "type": "Point",
       "coordinates":  [ -122.756689,47.393888 ]
    },
    "properties": {
    "job_name":"Betts.150thStKPN",
    "site_address":"16410 150th St KP N Pierce County WA",
    "doc_type":"SR",
    "exp":"None",
    "year":2016,
    "FIELD8":""
    }
  },
  {
    "type": "Feature",
    "geometry": {
       "type": "Point",
       "coordinates":  [ -122.65553,47.32421 ]
    },
    "properties": {
    "job_name":"Betts.RayNash",
    "site_address":"7318 Ray Nash Dr NW Pierce County WA",
    "doc_type":"LHGL/DR ",
    "exp":"B",
    "year":2018,
    "FIELD8":""
    }
  },
  {
    "type": "Feature",
    "geometry": {
       "type": "Point",
       "coordinates":  [ -122.508763,47.234169 ]
    },
    "properties": {
    "job_name":"Betzendorfer.SanJuanAve",
    "site_address":"608 San Juan Ave Fircrest WA",
    "doc_type":"L",
    "exp":"None",
    "year":2017,
    "FIELD8":""
    }
  },
  {
    "type": "Feature",
    "geometry": {
       "type": "Point",
       "coordinates":  [ -122.817234,47.006817 ]
    },
    "properties": {
    "job_name":"Beyler.45thAveSE",
    "site_address":"5013 45th Ave SE Lacey WA",
    "doc_type":"SR",
    "exp":"TP",
    "year":2017,
    "FIELD8":""
    }
  },
  {
    "type": "Feature",
    "geometry": {
       "type": "Point",
       "coordinates":  [ -122.453399,47.222441 ]
    },
    "properties": {
    "job_name":"Beyler.CushmanAveE",
    "site_address":"3817 S Cushman Ave Tacoma WA",
    "doc_type":"SR",
    "exp":"HA",
    "year":2017,
    "FIELD8":""
    }
  },
  {
    "type": "Feature",
    "geometry": {
       "type": "Point",
       "coordinates":  [ -122.458329,47.224181 ]
    },
    "properties": {
    "job_name":"Beyler.SAlaskaSt",
    "site_address":"3714 S Alaska St Tacoma WA",
    "doc_type":"SR",
    "exp":"HA",
    "year":2017,
    "FIELD8":""
    }
  },
  {
    "type": "Feature",
    "geometry": {
       "type": "Point",
       "coordinates":  [ -122.177566,47.694396 ]
    },
    "properties": {
    "job_name":"Beyler.SlaterAveNE",
    "site_address":"10510 Slater Ave NE Kirkland WA",
    "doc_type":"SR",
    "exp":"TP",
    "year":2017,
    "FIELD8":""
    }
  },
  {
    "type": "Feature",
    "geometry": {
       "type": "Point",
       "coordinates":  [ -122.499437,47.254687 ]
    },
    "properties": {
    "job_name":"BeylerConsulting.4529S7th",
    "site_address":"4529 S 7th St Tacoma WA",
    "doc_type":"SR",
    "exp":"TP",
    "year":2017,
    "FIELD8":""
    }
  },
  {
    "type": "Feature",
    "geometry": {
       "type": "Point",
       "coordinates":  [ -122.503184,47.254661 ]
    },
    "properties": {
    "job_name":"BeylerConsulting.4845S7thSt",
    "site_address":"4845 & 4847 S 7th St Tacoma WA",
    "doc_type":"SR",
    "exp":"TP",
    "year":2017,
    "FIELD8":""
    }
  },
  {
    "type": "Feature",
    "geometry": {
       "type": "Point",
       "coordinates":  [ -122.418698,47.197436 ]
    },
    "properties": {
    "job_name":"BeylerConsulting.E66thSt",
    "site_address":"905 E 66th St Tacoma WA",
    "doc_type":"L",
    "exp":"TP",
    "year":2016,
    "FIELD8":""
    }
  },
  {
    "type": "Feature",
    "geometry": {
       "type": "Point",
       "coordinates":  [ -122.428685,47.172653 ]
    },
    "properties": {
    "job_name":"BeylerConsulting.EBst",
    "site_address":"9311 E B St Tacoma WA",
    "doc_type":"L",
    "exp":"I",
    "year":2016,
    "FIELD8":""
    }
  },
  {
    "type": "Feature",
    "geometry": {
       "type": "Point",
       "coordinates":  [ -122.193777,47.513357 ]
    },
    "properties": {
    "job_name":"BeylerConsulting.GoatHill",
    "site_address":"NE 24th St Renton WA",
    "doc_type":"F/P",
    "exp":"None",
    "year":2014,
    "FIELD8":""
    }
  },
  {
    "type": "Feature",
    "geometry": {
       "type": "Point",
       "coordinates":  [ -122.509473,47.190965 ]
    },
    "properties": {
    "job_name":"BeylerConsulting.H&LProduce",
    "site_address":"7320 Lakewood Dr W Lakewood WA",
    "doc_type":"RH",
    "exp":"TP",
    "year":2016,
    "FIELD8":""
    }
  },
  {
    "type": "Feature",
    "geometry": {
       "type": "Point",
       "coordinates":  [ -122.497174,47.256861 ]
    },
    "properties": {
    "job_name":"BeylerConsulting.N8th",
    "site_address":"4420 N 8th St Tacoma WA",
    "doc_type":"SR",
    "exp":"TP",
    "year":2017,
    "FIELD8":""
    }
  },
  {
    "type": "Feature",
    "geometry": {
       "type": "Point",
       "coordinates":  [ -122.484139,47.162844 ]
    },
    "properties": {
    "job_name":"BeylerConsulting.OmarsTires",
    "site_address":"10402 S Tacoma Wy Lakewood WA",
    "doc_type":"RH",
    "exp":"TP",
    "year":2016,
    "FIELD8":""
    }
  },
  {
    "type": "Feature",
    "geometry": {
       "type": "Point",
       "coordinates":  [ -122.536726,47.245583 ]
    },
    "properties": {
    "job_name":"BeylerConsulting.SJacksonAve",
    "site_address":"1609 S Jackson Ave Tacoma WA",
    "doc_type":"SR",
    "exp":"TP",
    "year":2017,
    "FIELD8":""
    }
  },
  {
    "type": "Feature",
    "geometry": {
       "type": "Point",
       "coordinates":  [ -122.176598,47.371364 ]
    },
    "properties": {
    "job_name":"BeylerConsulting.Vinnichuk",
    "site_address":"25633 124th Ave SE Kent WA",
    "doc_type":"SR",
    "exp":"TP",
    "year":2017,
    "FIELD8":""
    }
  },
  {
    "type": "Feature",
    "geometry": {
       "type": "Point",
       "coordinates":  [ -122.702323,47.175777 ]
    },
    "properties": {
    "job_name":"Biggerstaff.AI",
    "site_address":"12401 Yoman Road AI Pierce County, WA",
    "doc_type":"DR/SR",
    "exp":"HA",
    "year":2017,
    "FIELD8":""
    }
  },
  {
    "type": "Feature",
    "geometry": {
       "type": "Point",
       "coordinates":  [ -122.697432,47.174253 ]
    },
    "properties": {
    "job_name":"Billet.YomanRd",
    "site_address":"11911 Yoman Rd Pierce County WA",
    "doc_type":"SR",
    "exp":"HA",
    "year":2018,
    "FIELD8":""
    }
  },
  {
    "type": "Feature",
    "geometry": {
       "type": "Point",
       "coordinates":  [ -122.558789,47.35321 ]
    },
    "properties": {
    "job_name":"Bishop.SunriseBeach",
    "site_address":"10410 Sunrise Beach Dr NW Gig Harbor WA",
    "doc_type":"M",
    "exp":"None",
    "year":2017,
    "FIELD8":""
    }
  },
  {
    "type": "Feature",
    "geometry": {
       "type": "Point",
       "coordinates":  [ -122.504482,47.234222 ]
    },
    "properties": {
    "job_name":"BjornOlson.RaveCarWash",
    "site_address":"5002 Center St Tacoma WA",
    "doc_type":"DFR",
    "exp":"None",
    "year":2016,
    "FIELD8":""
    }
  },
  {
    "type": "Feature",
    "geometry": {
       "type": "Point",
       "coordinates":  [ -122.694748,47.284853 ]
    },
    "properties": {
    "job_name":"Black.115thAve",
    "site_address":"3016 115th Ave NW Pierce County WA",
    "doc_type":"SEHGR",
    "exp":"None",
    "year":2016,
    "FIELD8":""
    }
  },
  {
    "type": "Feature",
    "geometry": {
       "type": "Point",
       "coordinates":  [ -122.664762,47.285504 ]
    },
    "properties": {
    "job_name":"Black.Coatsworth",
    "site_address":"3103 Coatsworth Dr NW Pierce County WA",
    "doc_type":"L",
    "exp":"None",
    "year":2017,
    "FIELD8":""
    }
  },
  {
    "type": "Feature",
    "geometry": {
       "type": "Point",
       "coordinates":  [ -122.939235,47.379727 ]
    },
    "properties": {
    "job_name":"BlackETwanohHeightsN",
    "site_address":"151 E Twanoh Heights Road N Belfair, Washington",
    "doc_type":"L",
    "exp":"None",
    "year":2019,
    "FIELD8":""
    }
  },
  {
    "type": "Feature",
    "geometry": {
       "type": "Point",
       "coordinates":  [ -122.663132,47.267635 ]
    },
    "properties": {
    "job_name":"BlackJ.BrickJKiln",
    "site_address":"122 Brick Kiln Rd Fox Island WA",
    "doc_type":"LHGL",
    "exp":"None",
    "year":2016,
    "FIELD8":""
    }
  },
  {
    "type": "Feature",
    "geometry": {
       "type": "Point",
       "coordinates":  [ -122.323779,47.237569 ]
    },
    "properties": {
    "job_name":"BlackRockLLC.YumaSt",
    "site_address":"2316 20th St E Edgewood WA",
    "doc_type":"L",
    "exp":"None",
    "year":2017,
    "FIELD8":""
    }
  },
  {
    "type": "Feature",
    "geometry": {
       "type": "Point",
       "coordinates":  [ -122.295931,47.108492 ]
    },
    "properties": {
    "job_name":"BlackRockNW.162ndAveE",
    "site_address":"xxx 162nd Ave E Pierce County WA",
    "doc_type":"GDR",
    "exp":"None",
    "year":2018,
    "FIELD8":""
    }
  },
  {
    "type": "Feature",
    "geometry": {
       "type": "Point",
       "coordinates":  [ -122.027379,47.396319 ]
    },
    "properties": {
    "job_name":"Blackwell.UpperDorreDonWay",
    "site_address":"Xxxx - Upper Dorre Don Way King County, Washington",
    "doc_type":"RG",
    "exp":"TP/PH",
    "year":2019,
    "FIELD8":""
    }
  },
  {
    "type": "Feature",
    "geometry": {
       "type": "Point",
       "coordinates":  [ -122.589136,47.335062 ]
    },
    "properties": {
    "job_name":"BlairA.Harborview",
    "site_address":"xxx Harborview Drive Gig Harbor WA",
    "doc_type":"RG",
    "exp":"B",
    "year":2016,
    "FIELD8":""
    }
  },
  {
    "type": "Feature",
    "geometry": {
       "type": "Point",
       "coordinates":  [ -122.583665,47.569506 ]
    },
    "properties": {
    "job_name":"Blaisdell.BeachDr",
    "site_address":"5305 E Blaisdell Ln Kitsap County WA",
    "doc_type":"GHA",
    "exp":"None",
    "year":2018,
    "FIELD8":""
    }
  },
  {
    "type": "Feature",
    "geometry": {
       "type": "Point",
       "coordinates":  [ -122.547738,47.379421 ]
    },
    "properties": {
    "job_name":"Blanford.9thAveNW",
    "site_address":"13311 9th Ave NW Pierce County WA",
    "doc_type":"LHGL",
    "exp":"None",
    "year":2018,
    "FIELD8":""
    }
  },
  {
    "type": "Feature",
    "geometry": {
       "type": "Point",
       "coordinates":  [ -122.183755,47.193343 ]
    },
    "properties": {
    "job_name":"Blanton.185th",
    "site_address":"7005 185th Ave E Bonney Lake WA",
    "doc_type":"SR",
    "exp":"TP",
    "year":2018,
    "FIELD8":""
    }
  },
  {
    "type": "Feature",
    "geometry": {
       "type": "Point",
       "coordinates":  [ -122.590019,47.298835 ]
    },
    "properties": {
    "job_name":"Bleecker.HollyLn",
    "site_address":"4415 Holly Ln NW Gig Harbor WA",
    "doc_type":"M",
    "exp":"None",
    "year":2018,
    "FIELD8":""
    }
  },
  {
    "type": "Feature",
    "geometry": {
       "type": "Point",
       "coordinates":  [ -122.215458,47.786478 ]
    },
    "properties": {
    "job_name":"Block26.Bothell",
    "site_address":"13th Ave Se & 233rd Pl SE Bothell WA",
    "doc_type":"RG",
    "exp":"TP",
    "year":2016,
    "FIELD8":""
    }
  },
  {
    "type": "Feature",
    "geometry": {
       "type": "Point",
       "coordinates":  [ -122.244846,46.99756 ]
    },
    "properties": {
    "job_name":"Blodgett.284thStE",
    "site_address":"13906 284th St E Pierce County WA",
    "doc_type":"RH",
    "exp":"None",
    "year":2017,
    "FIELD8":""
    }
  },
  {
    "type": "Feature",
    "geometry": {
       "type": "Point",
       "coordinates":  [ -122.525848,47.290084 ]
    },
    "properties": {
    "job_name":"BNYMellon.WiborgTrust",
    "site_address":"6608 N 46th St Tacoma WA",
    "doc_type":"RG",
    "exp":"B",
    "year":2017,
    "FIELD8":""
    }
  },
  {
    "type": "Feature",
    "geometry": {
       "type": "Point",
       "coordinates":  [ -122.467537,47.15738 ]
    },
    "properties": {
    "job_name":"BodineEnterprises.SteelStreetMaxiSpacePhase3",
    "site_address":"Steele Street Maxi-Space Tacoma WA",
    "doc_type":"L",
    "exp":"None",
    "year":2016,
    "FIELD8":""
    }
  },
  {
    "type": "Feature",
    "geometry": {
       "type": "Point",
       "coordinates":  [ -122.428791,46.889302 ]
    },
    "properties": {
    "job_name":"Boe.HighlandDrE",
    "site_address":"40520 Highland Dr E Pierce County WA",
    "doc_type":"RH",
    "exp":"W",
    "year":2017,
    "FIELD8":""
    }
  },
  {
    "type": "Feature",
    "geometry": {
       "type": "Point",
       "coordinates":  [ -122.75164,47.199542 ]
    },
    "properties": {
    "job_name":"Boettcher.YeazellRd",
    "site_address":"6313 Yeazell Rd KP S Pierce County WA",
    "doc_type":"LHGL",
    "exp":"PH",
    "year":2017,
    "FIELD8":""
    }
  },
  {
    "type": "Feature",
    "geometry": {
       "type": "Point",
       "coordinates":  [ -122.033028,47.125238 ]
    },
    "properties": {
    "job_name":"Boggs.SpiketonRd",
    "site_address":"xxx Wilkeson-Spiketon Rd Pierce County WA",
    "doc_type":"LHGL",
    "exp":"None",
    "year":2017,
    "FIELD8":""
    }
  },
  {
    "type": "Feature",
    "geometry": {
       "type": "Point",
       "coordinates":  [ -122.587555,47.326499 ]
    },
    "properties": {
    "job_name":"Bogue.EdwardsDr",
    "site_address":"Edwards Dr Gig Harbor WA",
    "doc_type":"F",
    "exp":"None",
    "year":2014,
    "FIELD8":""
    }
  },
  {
    "type": "Feature",
    "geometry": {
       "type": "Point",
       "coordinates":  [ -122.195284,47.229232 ]
    },
    "properties": {
    "job_name":"Bokor.DeerIslandDr",
    "site_address":"3105 Deer Island Dr Pierce County WA",
    "doc_type":"RG",
    "exp":"HA",
    "year":2018,
    "FIELD8":""
    }
  },
  {
    "type": "Feature",
    "geometry": {
       "type": "Point",
       "coordinates":  [ -122.525486,47.281171 ]
    },
    "properties": {
    "job_name":"Bolotin,David.ViewRidgeDrive",
    "site_address":"6454 View Ridge Dr Tacoma WA",
    "doc_type":"RG",
    "exp":"TP",
    "year":2017,
    "FIELD8":""
    }
  },
  {
    "type": "Feature",
    "geometry": {
       "type": "Point",
       "coordinates":  [ -122.667201,47.300552 ]
    },
    "properties": {
    "job_name":"Bonney.RayNashDr",
    "site_address":"xxx Ray Nash Dr NW Pierce County WA",
    "doc_type":"RH",
    "exp":"W",
    "year":2017,
    "FIELD8":""
    }
  },
  {
    "type": "Feature",
    "geometry": {
       "type": "Point",
       "coordinates":  [ -122.589761,47.536338 ]
    },
    "properties": {
    "job_name":"BoscoConstruction.BabyDollRd",
    "site_address":"1448 Baby Doll Rd SE Kitsap County WA",
    "doc_type":"DR",
    "exp":"TP",
    "year":2015,
    "FIELD8":""
    }
  },
  {
    "type": "Feature",
    "geometry": {
       "type": "Point",
       "coordinates":  [ -122.191678,47.459522 ]
    },
    "properties": {
    "job_name":"BoscoConstruction.LooperResidence",
    "site_address":"16100 111th Pl SE Renton WA",
    "doc_type":"RG",
    "exp":"HA",
    "year":2015,
    "FIELD8":""
    }
  },
  {
    "type": "Feature",
    "geometry": {
       "type": "Point",
       "coordinates":  [ -122.836054,47.260135 ]
    },
    "properties": {
    "job_name":"Boshear.EMadronaBlvdKPN",
    "site_address":"305 E Madrona Boulevard KPN",
    "doc_type":"M",
    "exp":"None",
    "year":2017,
    "FIELD8":""
    }
  },
  {
    "type": "Feature",
    "geometry": {
       "type": "Point",
       "coordinates":  [ -122.821681,47.260885 ]
    },
    "properties": {
    "job_name":"Bottiger.213thAveCtKPN",
    "site_address":"321 213th Ave Ct KP N Pierce County WA",
    "doc_type":"F",
    "exp":"None",
    "year":2016,
    "FIELD8":""
    }
  },
  {
    "type": "Feature",
    "geometry": {
       "type": "Point",
       "coordinates":  [ -122.428766,47.195341 ]
    },
    "properties": {
    "job_name":"Bowen.68thStandBSt",
    "site_address":"68th St & B St Tacoma WA",
    "doc_type":"DFR",
    "exp":"None",
    "year":2016,
    "FIELD8":""
    }
  },
  {
    "type": "Feature",
    "geometry": {
       "type": "Point",
       "coordinates":  [ -122.612452,46.951118 ]
    },
    "properties": {
    "job_name":"Bowen.CullenRdSE",
    "site_address":"9405 Cullens Rd SE Yelm WA",
    "doc_type":"DFR",
    "exp":"None",
    "year":2017,
    "FIELD8":""
    }
  },
  {
    "type": "Feature",
    "geometry": {
       "type": "Point",
       "coordinates":  [ -122.274769,46.934009 ]
    },
    "properties": {
    "job_name":"Boyce.ClearLakeNorthRdE",
    "site_address":"11712 Clear Lake N Rd E Pierce County WA",
    "doc_type":"SR",
    "exp":"TP",
    "year":2018,
    "FIELD8":""
    }
  },
  {
    "type": "Feature",
    "geometry": {
       "type": "Point",
       "coordinates":  [ -122.792786,47.065288 ]
    },
    "properties": {
    "job_name":"BPCI.BrittonPlaza",
    "site_address":"Britton Plaza Lacey WA",
    "doc_type":"FL",
    "exp":"None",
    "year":2016,
    "FIELD8":""
    }
  },
  {
    "type": "Feature",
    "geometry": {
       "type": "Point",
       "coordinates":  [ -122.712538,47.392907 ]
    },
    "properties": {
    "job_name":"Bradley.132ndAveKPN",
    "site_address":"14819 132nd Ave KP N Pierce County WA",
    "doc_type":"RG",
    "exp":"TP",
    "year":2016,
    "FIELD8":""
    }
  },
  {
    "type": "Feature",
    "geometry": {
       "type": "Point",
       "coordinates":  [ -122.530077,46.968024 ]
    },
    "properties": {
    "job_name":"Bradley.75thAveCtS",
    "site_address":"31821 75th Ave Ct S Pierce County WA",
    "doc_type":"RH",
    "exp":"W",
    "year":2017,
    "FIELD8":""
    }
  },
  {
    "type": "Feature",
    "geometry": {
       "type": "Point",
       "coordinates":  [ -122.585895,47.356587 ]
    },
    "properties": {
    "job_name":"Brady.108thStNW",
    "site_address":"3516 108th St NW Gig Harbor WA",
    "doc_type":"M",
    "exp":"None",
    "year":2017,
    "FIELD8":""
    }
  },
  {
    "type": "Feature",
    "geometry": {
       "type": "Point",
       "coordinates":  [ -122.694643,47.288046 ]
    },
    "properties": {
    "job_name":"Brannon.117thAveNW",
    "site_address":"3408 117th Ave NW Pierce County WA",
    "doc_type":"LHGL",
    "exp":"None",
    "year":2016,
    "FIELD8":""
    }
  },
  {
    "type": "Feature",
    "geometry": {
       "type": "Point",
       "coordinates":  [ -122.312578,46.978954 ]
    },
    "properties": {
    "job_name":"Brannon.304thStE",
    "site_address":"xxx 304th St E Pierce County WA",
    "doc_type":"RH",
    "exp":"W",
    "year":2017,
    "FIELD8":""
    }
  },
  {
    "type": "Feature",
    "geometry": {
       "type": "Point",
       "coordinates":  [ -122.590255,47.333744 ]
    },
    "properties": {
    "job_name":"BransonD.BayRidgeNW",
    "site_address":"xxx Bayridge Ave Gig Harbor WA",
    "doc_type":"RG",
    "exp":"B",
    "year":2015,
    "FIELD8":""
    }
  },
  {
    "type": "Feature",
    "geometry": {
       "type": "Point",
       "coordinates":  [ -122.45437,46.919431 ]
    },
    "properties": {
    "job_name":"Brazell.18thAveS",
    "site_address":"37207 18th Ave S Pierce County WA",
    "doc_type":"DR/SR",
    "exp":"TP",
    "year":2017,
    "FIELD8":""
    }
  },
  {
    "type": "Feature",
    "geometry": {
       "type": "Point",
       "coordinates":  [ -122.244174,47.104587 ]
    },
    "properties": {
    "job_name":"BRCF.MorningView.L1",
    "site_address":"16620 140th Ave E Pierce County WA",
    "doc_type":"L/LHGL",
    "exp":"None",
    "year":2017,
    "FIELD8":""
    }
  },
  {
    "type": "Feature",
    "geometry": {
       "type": "Point",
       "coordinates":  [ -122.243973,47.105387 ]
    },
    "properties": {
    "job_name":"BRCF.Morningview.L8",
    "site_address":"16621, 16617, 16611 140th Ave E Pierce County WA",
    "doc_type":"RG",
    "exp":"TP",
    "year":2015,
    "FIELD8":""
    }
  },
  {
    "type": "Feature",
    "geometry": {
       "type": "Point",
       "coordinates":  [ -122.230137,47.188998 ]
    },
    "properties": {
    "job_name":"BRCF.SumnerValleyMeadows",
    "site_address":"7501 Orting Highway E Sumner WA",
    "doc_type":"RG",
    "exp":"HA",
    "year":2017,
    "FIELD8":""
    }
  },
  {
    "type": "Feature",
    "geometry": {
       "type": "Point",
       "coordinates":  [ -122.630643,47.618705 ]
    },
    "properties": {
    "job_name":"BremertonBusinessParkLLC.SR303",
    "site_address":"NE McWilliams Rd & SR 303 Kitsap County WA",
    "doc_type":"RG",
    "exp":"TP",
    "year":2017,
    "FIELD8":""
    }
  },
  {
    "type": "Feature",
    "geometry": {
       "type": "Point",
       "coordinates":  [ -122.470615,47.214093 ]
    },
    "properties": {
    "job_name":"Brentwood.48thStApts",
    "site_address":"2515 S 48th St Tacoma WA",
    "doc_type":"RG",
    "exp":"TP",
    "year":2015,
    "FIELD8":""
    }
  },
  {
    "type": "Feature",
    "geometry": {
       "type": "Point",
       "coordinates":  [ -122.458803,47.195289 ]
    },